;Building Code;Address;# Schools;Major N;Oth N;NoCrim N;Prop N;Vio N;RangeA;AvgOfMajor N;AvgOfOth N;AvgOfNoCrim N;AvgOfProp N;AvgOfVio N;lon;lat;valid_coordinates;in_brooklyn
0;K001;309 47 STREET;1.0;0.0;1.0;0.3333333333333333;0.6666666666666666;0.0;1500.0;0.7966666666666667;3.1666666666666665;5.463333333333334;2.023333333333333;1.49;-73.9996623;40.6379042;True;True
1;K002;655 PARKSIDE AVENUE;3.0;0.6666666666666666;3.3333333333333335;1.3333333333333333;1.3333333333333333;2.0;1000.0;0.4533333333333333;1.6900000000000002;2.5466666666666664;1.1033333333333333;0.7733333333333333;-73.9515241;40.6564413;True;True
2;K003;50 JEFFERSON AVENUE;1.0;0.6666666666666666;0.3333333333333333;1.0;0.6666666666666666;0.3333333333333333;666.6666666666666;0.30333333333333334;1.1133333333333335;1.75;0.75;0.5133333333333333;-73.9555438449292;40.682302449999995;True;True
3;K005;820 HANCOCK STREET;1.0;0.3333333333333333;0.6666666666666666;0.6666666666666666;0.6666666666666666;0.3333333333333333;416.6666666666667;0.2866666666666667;0.96;1.3933333333333333;0.68;0.43333333333333335;-73.9226032;40.6855458;True;True
4;K006;43 SNYDER AVENUE;1.0;0.0;0.6666666666666666;1.6666666666666667;0.3333333333333333;0.0;750.0;0.3066666666666667;1.1833333333333336;1.7733333333333334;0.79;0.5433333333333333;-73.9561111;40.6488889;True;True
5;K007;858 JAMAICA AVENUE;1.0;0.0;0.3333333333333333;0.0;0.0;0.0;1166.6666666666667;0.47333333333333333;2.1;3.2099999999999995;1.2100000000000002;0.9566666666666666;-73.87313338576763;40.68932475;True;True
6;K008;37 HICKS STREET;1.0;1.3333333333333333;0.0;0.3333333333333333;1.3333333333333333;0.0;1000.0;0.4533333333333333;1.6900000000000002;2.5466666666666664;1.1033333333333333;0.7733333333333333;-73.99276080491771;40.700800900000004;True;True
7;K009;80 UNDERHILL AVENUE;2.0;0.0;0.6666666666666666;0.6666666666666666;0.6666666666666666;0.0;916.6666666666666;0.38999999999999996;1.5599999999999998;2.3033333333333332;0.9933333333333333;0.7199999999999999;-73.9657362;40.6783215;True;True
8;K010;511 7 AVENUE;1.0;0.3333333333333333;1.0;0.0;1.0;0.3333333333333333;1083.3333333333333;0.45999999999999996;1.8699999999999999;2.853333333333333;1.1433333333333333;0.8566666666666666;-73.9667364066186;40.588854196323425;True;True
9;K011;419 WAVERLY AVENUE;1.0;0.6666666666666666;0.3333333333333333;0.6666666666666666;1.0;0.0;916.6666666666666;0.38999999999999996;1.5599999999999998;2.3033333333333332;0.9933333333333333;0.7199999999999999;-73.96583810763471;40.6855509;True;True
10;K012;430 HOWARD AVENUE;2.0;1.0;3.3333333333333335;1.6666666666666667;3.3333333333333335;1.0;416.6666666666667;0.2866666666666667;0.96;1.3933333333333333;0.68;0.43333333333333335;-73.9197565;40.6728542;True;True
11;K013;557 PENNSYLVANIA AVENUE;2.0;0.0;1.3333333333333333;3.3333333333333335;0.0;1.3333333333333333;583.3333333333334;0.3;1.0933333333333335;1.4033333333333333;0.7600000000000001;0.5033333333333333;-73.89327816899589;40.66392645;True;True
12;K014;2424 BATCHELDER STREET;1.6666666666666667;0.3333333333333333;2.6666666666666665;3.0;2.6666666666666665;0.0;916.6666666666666;0.38999999999999996;1.5599999999999998;2.3033333333333332;0.9933333333333333;0.7199999999999999;-73.9377956;40.5934838;True;True
13;K015;71 SULLIVAN STREET;1.0;0.6666666666666666;1.3333333333333333;0.3333333333333333;1.6666666666666667;0.3333333333333333;500.0;0.2966666666666667;1.0233333333333332;1.38;0.7200000000000001;0.47333333333333333;-74.01195231409375;40.67693345;True;True
14;K016;157 WILSON STREET;2.0;0.3333333333333333;0.3333333333333333;1.3333333333333333;0.3333333333333333;0.3333333333333333;250.0;0.3433333333333333;0.8333333333333334;1.3699999999999999;0.7133333333333333;0.3666666666666667;-73.96182709405845;40.706023200000004;True;True
15;K017;208 NORTH  5 STREET;2.0;0.0;0.0;1.6666666666666667;0.0;0.0;1000.0;0.4533333333333333;1.6900000000000002;2.5466666666666664;1.1033333333333333;0.7733333333333333;-73.99931696385194;40.576995499999995;True;True
16;K018;101 MAUJER STREET;1.0;0.3333333333333333;0.6666666666666666;0.6666666666666666;1.0;0.0;250.0;0.3433333333333333;0.8333333333333334;1.3699999999999999;0.7133333333333333;0.3666666666666667;-73.9468991;40.71072;True;True
17;K019;325 SOUTH  3 STREET;1.6666666666666667;0.0;0.3333333333333333;0.3333333333333333;0.3333333333333333;0.0;583.3333333333334;0.2966666666666667;1.0233333333333332;1.38;0.7200000000000001;0.47333333333333333;-73.9547643;40.7098922;True;True
18;K020;225 ADELPHI STREET;2.0;0.0;0.6666666666666666;1.6666666666666667;0.3333333333333333;0.3333333333333333;1000.0;0.4533333333333333;1.6900000000000002;2.5466666666666664;1.1033333333333333;0.7733333333333333;-73.97109904546058;40.6910261;True;True
19;K021;180 CHAUNCEY STREET;1.0;0.3333333333333333;1.0;0.3333333333333333;1.0;0.3333333333333333;750.0;0.3066666666666667;1.1833333333333336;1.7733333333333334;0.79;0.5433333333333333;-73.92604270728506;40.6803709;True;True
20;K022;443 ST MARKS AVENUE;3.0;2.0;0.0;2.0;2.0;0.0;500.0;0.35;1.06;1.09;0.73;0.5;-73.96028;40.67694;True;True
21;K022;443 ST. MARKS AVENUE;2.0;0.0;0.5;1.0;0.5;0.0;750.0;0.325;1.4100000000000001;1.88;0.89;0.6499999999999999;-73.96028;40.67694;True;True
22;K023;545 WILLOUGHBY AVENUE;2.0;0.3333333333333333;0.6666666666666666;0.3333333333333333;1.0;0.0;583.3333333333334;0.3;1.0933333333333335;1.4033333333333333;0.7600000000000001;0.5033333333333333;-73.94747129298835;40.694414300000005;True;True
23;K024;427 38 STREET;1.0;0.0;0.0;1.6666666666666667;0.0;0.0;750.0;0.3066666666666667;1.1833333333333336;1.7733333333333334;0.79;0.5433333333333333;-73.9996623;40.6379042;True;True
24;K025;787 LAFAYETTE AVENUE;2.0;0.0;1.3333333333333333;1.6666666666666667;0.0;0.6666666666666666;416.6666666666667;0.2866666666666667;0.96;1.3933333333333333;0.68;0.43333333333333335;-73.94071490548063;40.691475600000004;True;True
25;K026;1014 LAFAYETTE AVENUE;3.0;0.6666666666666666;2.0;4.666666666666667;1.0;1.0;666.6666666666666;0.30333333333333334;1.1133333333333335;1.75;0.75;0.5133333333333333;-73.9322533076923;40.69199046153846;True;True
26;K027;27 HUNTINGTON STREET;2.0;0.0;0.6666666666666666;0.3333333333333333;0.3333333333333333;0.3333333333333333;416.6666666666667;0.3566666666666667;0.9666666666666668;1.38;0.7933333333333333;0.4366666666666667;-74.00497896557891;40.677848499999996;True;True
27;K028;1001 HERKIMER STREET;1.0;0.0;0.3333333333333333;0.0;0.3333333333333333;0.0;250.0;0.3433333333333333;0.8333333333333334;1.3699999999999999;0.7133333333333333;0.3666666666666667;-73.9202186;40.6781614;True;True
28;K029;425 HENRY STREET;1.0;0.0;0.0;0.3333333333333333;0.0;0.0;1000.0;0.4533333333333333;1.6900000000000002;2.5466666666666664;1.1033333333333333;0.7733333333333333;-73.99766793985955;40.6868795;True;True
29;K031;75 MESEROLE AVENUE;1.0;0.0;0.0;0.0;0.0;0.0;750.0;0.3066666666666667;1.1833333333333336;1.7733333333333334;0.79;0.5433333333333333;-73.95399598250972;40.726907100000005;True;True
30;K032;317 HOYT STREET;2.0;0.3333333333333333;3.6666666666666665;2.0;3.6666666666666665;0.3333333333333333;750.0;0.3066666666666667;1.1833333333333336;1.7733333333333334;0.79;0.5433333333333333;-73.99127362229169;40.6802926;True;True
31;K033;70 TOMPKINS AVENUE;4.0;0.3333333333333333;4.0;4.0;1.6666666666666667;2.3333333333333335;500.0;0.2966666666666667;1.0233333333333332;1.38;0.7200000000000001;0.47333333333333333;-73.94730064627268;40.69670995;True;True
32;K034;131 NORMAN AVENUE;1.0;0.3333333333333333;1.0;0.0;1.3333333333333333;0.0;666.6666666666666;0.30333333333333334;1.1133333333333335;1.75;0.75;0.5133333333333333;-73.9497692670706;40.72639205;True;True
33;K035;272 MACDONOUGH STREET;2.0;0.6666666666666666;0.6666666666666666;2.6666666666666665;0.6666666666666666;0.6666666666666666;500.0;0.2966666666666667;1.0233333333333332;1.38;0.7200000000000001;0.47333333333333333;-73.9355312;40.6818194;True;True
34;K038;450 PACIFIC STREET;1.0;0.3333333333333333;0.6666666666666666;1.0;1.0;0.0;750.0;0.3066666666666667;1.1833333333333336;1.7733333333333334;0.79;0.5433333333333333;-73.9828250726062;40.68495485;True;True
35;K039;417 6 AVENUE;1.0;0.0;0.0;0.0;0.0;0.0;500.0;0.2966666666666667;1.0233333333333332;1.38;0.7200000000000001;0.47333333333333333;-73.9703214117647;40.588454;True;True
36;K040;265 RALPH AVENUE;2.0;1.0;1.3333333333333333;0.6666666666666666;1.6666666666666667;0.6666666666666666;666.6666666666666;0.30333333333333334;1.1133333333333335;1.75;0.75;0.5133333333333333;-73.92146604408174;40.680196499999994;True;True
37;K041;411 THATFORD AVENUE;1.0;0.3333333333333333;4.0;1.0;1.0;3.0;666.6666666666666;0.30333333333333334;1.1133333333333335;1.75;0.75;0.5133333333333333;-73.90705321058172;40.6601813;True;True
38;K043;1401 EMMONS AVENUE;1.0;0.0;0.3333333333333333;2.0;0.3333333333333333;0.0;1500.0;0.7966666666666667;3.1666666666666665;5.463333333333334;2.023333333333333;1.49;-73.95422031017692;40.58377285;True;True
39;K044;432 MONROE STREET;1.3333333333333333;0.0;0.3333333333333333;3.6666666666666665;0.0;0.0;416.6666666666667;0.2866666666666667;0.96;1.3933333333333333;0.68;0.43333333333333335;-73.94116259619689;40.6861818;True;True
40;K045;84 SCHAEFER STREET;1.0;0.0;0.6666666666666666;1.0;0.3333333333333333;0.3333333333333333;1000.0;0.4533333333333333;1.6900000000000002;2.5466666666666664;1.1033333333333333;0.7733333333333333;-73.91033667385625;40.686701799999994;True;True
41;K046;100 CLERMONT AVENUE;2.0;1.0;2.0;2.3333333333333335;1.3333333333333333;1.6666666666666667;750.0;0.3066666666666667;1.1833333333333336;1.7733333333333334;0.79;0.5433333333333333;-73.97165866362695;40.6945922;True;True
42;K048;6015 18 AVENUE;1.0;0.0;0.0;0.0;0.0;0.0;750.0;0.3066666666666667;1.1833333333333336;1.7733333333333334;0.79;0.5433333333333333;-73.990414;40.620671;True;True
43;K049;223 GRAHAM AVENUE;3.0;1.6666666666666667;5.333333333333333;9.0;4.333333333333333;2.3333333333333335;1500.0;0.7966666666666667;3.1666666666666665;5.463333333333334;2.023333333333333;1.49;-73.943911;40.7098149;True;True
44;K050;183 SOUTH  3 STREET;1.3333333333333333;0.3333333333333333;1.0;3.6666666666666665;0.6666666666666666;0.6666666666666666;333.3333333333333;0.31666666666666665;0.8433333333333334;1.3233333333333333;0.6266666666666667;0.39666666666666667;-73.9596149;40.7117745;True;True
45;K051;350 5 AVENUE;1.0;0.0;1.0;0.3333333333333333;0.6666666666666666;0.3333333333333333;1250.0;0.5366666666666666;2.236666666666667;3.6300000000000003;1.3466666666666667;1.0333333333333332;-73.97280036464088;40.588014430939225;True;True
46;K052;2675 EAST  29 STREET;1.0;0.0;0.6666666666666666;0.3333333333333333;0.0;0.6666666666666666;1000.0;0.4533333333333333;1.6900000000000002;2.5466666666666664;1.1033333333333333;0.7733333333333333;-73.9402515;40.5874041;True;True
47;K054;195 SANFORD STREET;1.0;1.0;0.3333333333333333;0.0;1.0;0.3333333333333333;333.3333333333333;0.31666666666666665;0.8433333333333334;1.3233333333333333;0.6266666666666667;0.39666666666666667;-73.9527438;40.6926096;True;True
48;K055;2021 BERGEN STREET;2.0;0.0;5.0;7.0;3.0;1.0;500.0;0.35;1.06;1.09;0.73;0.5;-73.91352113697846;40.67449860000001;True;True
49;K055;2021 Bergen Street;2.0;1.5;4.5;6.5;2.5;3.5;500.0;0.27;1.0050000000000001;1.525;0.7150000000000001;0.45999999999999996;-73.91352113697846;40.67449860000001;True;True
50;K056;170 GATES AVENUE;2.3333333333333335;0.0;0.3333333333333333;0.6666666666666666;0.3333333333333333;0.0;500.0;0.2966666666666667;1.0233333333333332;1.38;0.7200000000000001;0.47333333333333333;-73.96027539659976;40.684069;True;True
51;K057;125 STUYVESANT AVENUE;3.0;1.0;4.666666666666667;3.0;3.6666666666666665;1.3333333333333333;500.0;0.2966666666666667;1.0233333333333332;1.38;0.7200000000000001;0.47333333333333333;-73.9332614;40.6917087;True;True
52;K058;330 SMITH STREET;1.0;0.3333333333333333;0.3333333333333333;0.0;0.6666666666666666;0.0;1000.0;0.4533333333333333;1.6900000000000002;2.5466666666666664;1.1033333333333333;0.7733333333333333;-73.995048;40.680303;True;True
53;K059;211 THROOP AVENUE;2.0;0.0;0.6666666666666666;0.0;0.3333333333333333;0.0;583.3333333333334;0.3;1.0933333333333335;1.4033333333333333;0.7600000000000001;0.5033333333333333;-73.94348646048749;40.6975041;True;True
54;K061;400 EMPIRE BOULEVARD;1.0;1.6666666666666667;8.0;6.0;3.6666666666666665;4.333333333333333;1000.0;0.4533333333333333;1.6900000000000002;2.5466666666666664;1.1033333333333333;0.7733333333333333;-73.94950749185615;40.66365415;True;True
55;K062;700 CORTELYOU ROAD;1.0;0.0;2.3333333333333335;0.6666666666666666;0.6666666666666666;1.6666666666666667;1416.6666666666667;0.7733333333333333;2.866666666666667;4.753333333333334;1.913333333333333;1.3266666666666664;-73.97132481406734;40.63816405;True;True
56;K066;845 EAST  96 STREET;1.0;0.0;1.3333333333333333;1.3333333333333333;0.3333333333333333;1.0;1000.0;0.4533333333333333;1.6900000000000002;2.5466666666666664;1.1033333333333333;0.7733333333333333;-73.9067261;40.6487279;True;True
57;K067;51 SAINT EDWARDS STREET;1.3333333333333333;0.6666666666666666;1.3333333333333333;1.3333333333333333;1.0;0.6666666666666666;333.3333333333333;0.31666666666666665;0.8433333333333334;1.3233333333333333;0.6266666666666667;0.39666666666666667;-73.9779092;40.6950782;True;True
58;K068;956 EAST  82 STREET;1.0;1.3333333333333333;6.333333333333333;4.333333333333333;2.3333333333333335;4.0;666.6666666666666;0.30333333333333334;1.1133333333333335;1.75;0.75;0.5133333333333333;-73.9107221;40.6348776;True;True
59;K069;6302 9TH AVENUE;1.0;0.0;0.0;0.0;0.0;0.0;1000.0;0.4533333333333333;1.6900000000000002;2.5466666666666664;1.1033333333333333;0.7733333333333333;-74.0095225;40.6323855;True;True
60;K071;215 HEYWARD STREET;1.3333333333333333;1.3333333333333333;8.333333333333334;7.666666666666667;5.0;4.0;833.3333333333334;0.37000000000000005;1.3133333333333335;2.016666666666667;0.9;0.5966666666666667;-73.95378415472399;40.703832899999995;True;True
61;K072;605 SHEPHERD AVENUE;2.0;0.3333333333333333;3.3333333333333335;3.0;2.0;1.3333333333333333;1000.0;0.4533333333333333;1.6900000000000002;2.5466666666666664;1.1033333333333333;0.7733333333333333;-73.87920550185237;40.66957195;True;True
62;K073;251 MCDOUGAL STREET;2.6666666666666665;1.0;1.3333333333333333;2.0;1.3333333333333333;0.6666666666666666;500.0;0.2966666666666667;1.0233333333333332;1.38;0.7200000000000001;0.47333333333333333;-73.910772;40.680537;True;True
63;K075;95 GROVE STREET;1.0;0.3333333333333333;0.0;2.0;0.3333333333333333;0.0;666.6666666666666;0.30333333333333334;1.1133333333333335;1.75;0.75;0.5133333333333333;-73.92114270572984;40.693164499999995;True;True
64;K078;1420 EAST  68 STREET;1.0;1.0;3.0;7.0;1.0;3.0;1000.0;0.52;1.71;2.49;1.16;0.75;-73.9131104;40.6208332;True;True
65;K078;1420 East 68 Street;2.0;1.0;4.0;3.5;0.0;5.0;1000.0;0.42000000000000004;1.68;2.575;1.075;0.7849999999999999;-73.9131104;40.6208332;True;True
66;K081;990 DEKALB AVENUE;1.0;0.6666666666666666;1.3333333333333333;1.6666666666666667;1.0;0.6666666666666666;500.0;0.2966666666666667;1.0233333333333332;1.38;0.7200000000000001;0.47333333333333333;-73.93435685950807;40.69292515;True;True
67;K084;250 BERRY STREET;1.0;0.0;1.3333333333333333;1.6666666666666667;1.3333333333333333;0.0;750.0;0.3066666666666667;1.1833333333333336;1.7733333333333334;0.79;0.5433333333333333;-73.9636886258322;40.714944599999995;True;True
68;K085;510 CLERMONT AVENUE;1.0;2.3333333333333335;5.333333333333333;4.0;3.0;3.3333333333333335;250.0;0.3433333333333333;0.8333333333333334;1.3699999999999999;0.7133333333333333;0.3666666666666667;-73.96944346361745;40.6834798;True;True
69;K086;220 IRVING AVENUE;1.0;0.0;0.0;0.0;0.0;0.0;500.0;0.2966666666666667;1.0233333333333332;1.38;0.7200000000000001;0.47333333333333333;-73.91779853620689;40.7005989;True;True
70;K088;544 7TH AVENUE;2.0;0.0;4.0;5.333333333333333;1.6666666666666667;2.0;2250.0;1.0633333333333332;4.49;8.673333333333334;2.9333333333333336;2.03;-73.98793069829736;40.660181050000006;True;True
71;K090;2840 WEST  12 STREET;1.0;0.0;1.6666666666666667;1.6666666666666667;1.0;0.3333333333333333;750.0;0.3066666666666667;1.1833333333333336;1.7733333333333334;0.79;0.5433333333333333;-73.98034;40.5780803;True;True
72;K091;532 ALBANY AVENUE;1.0;1.3333333333333333;1.3333333333333333;0.6666666666666666;1.6666666666666667;0.6666666666666666;500.0;0.2966666666666667;1.0233333333333332;1.38;0.7200000000000001;0.47333333333333333;-73.94022601283055;40.661832149999995;True;True
73;K092;601 PARKSIDE AVENUE;1.3333333333333333;0.6666666666666666;0.6666666666666666;1.0;0.6666666666666666;0.6666666666666666;500.0;0.2966666666666667;1.0233333333333332;1.38;0.7200000000000001;0.47333333333333333;-73.9540269;40.6562148;True;True
74;K093;31 NEW YORK AVENUE;1.0;0.0;1.3333333333333333;1.0;1.3333333333333333;0.0;500.0;0.2966666666666667;1.0233333333333332;1.38;0.7200000000000001;0.47333333333333333;-73.9465267;40.6787143;True;True
75;K094;5010 6 AVENUE;1.0;0.0;1.0;1.3333333333333333;1.0;0.0;1750.0;0.6833333333333332;2.9;5.176666666666667;1.7033333333333331;1.4400000000000002;-73.9402889;40.5916778;True;True
76;K095;345 VAN SICKLEN STREET;1.0;0.3333333333333333;0.6666666666666666;1.3333333333333333;1.0;0.0;1000.0;0.4533333333333333;1.6900000000000002;2.5466666666666664;1.1033333333333333;0.7733333333333333;-73.97487355272352;40.5959595;True;True
77;K096;99 AVENUE P;1.6666666666666667;0.0;2.3333333333333335;5.0;1.0;1.0;750.0;0.3066666666666667;1.1833333333333336;1.7733333333333334;0.79;0.5433333333333333;-73.9849061;40.6077255;True;True
78;K097;1855 STILLWELL AVENUE;1.0;0.0;0.6666666666666666;0.6666666666666666;0.3333333333333333;0.3333333333333333;1000.0;0.4533333333333333;1.6900000000000002;2.5466666666666664;1.1033333333333333;0.7733333333333333;-73.98576368308737;40.60130265;True;True
79;K099;1120 EAST  10 STREET;1.0;0.3333333333333333;0.0;0.3333333333333333;0.3333333333333333;0.0;1000.0;0.4533333333333333;1.6900000000000002;2.5466666666666664;1.1033333333333333;0.7733333333333333;-74.0000606231132;40.579143349999995;True;True
80;K100;2951 WEST  3 STREET;1.0;0.3333333333333333;0.0;1.0;0.0;0.3333333333333333;833.3333333333334;0.34;1.3833333333333335;1.9866666666666666;0.8666666666666667;0.64;-74.00012135;40.573644349999995;True;True
81;K101;2360 BENSON AVENUE;1.0;0.3333333333333333;0.0;0.6666666666666666;0.3333333333333333;0.0;1000.0;0.4533333333333333;1.6900000000000002;2.5466666666666664;1.1033333333333333;0.7733333333333333;-73.99193734256428;40.5973726;True;True
82;K102;211 72 STREET;1.0;0.0;0.6666666666666666;1.6666666666666667;0.6666666666666666;0.0;1500.0;0.7966666666666667;3.1666666666666665;5.463333333333334;2.023333333333333;1.49;-73.9996623;40.6379042;True;True
83;K104;9115 5 AVENUE;1.0;0.0;0.3333333333333333;2.3333333333333335;0.3333333333333333;0.0;1250.0;0.5366666666666666;2.236666666666667;3.6300000000000003;1.3466666666666667;1.0333333333333332;-73.9402889;40.5916778;True;True
84;K105;1031 59 STREET;1.0;0.0;0.3333333333333333;0.3333333333333333;0.3333333333333333;0.0;1833.3333333333333;0.6833333333333332;3.393333333333333;5.833333333333333;2.016666666666667;1.6233333333333333;-74.017881;40.641362;True;True
85;K106;1328 PUTNAM AVENUE;1.0;0.0;0.6666666666666666;0.0;0.6666666666666666;0.0;750.0;0.3066666666666667;1.1833333333333336;1.7733333333333334;0.79;0.5433333333333333;-73.91268318152709;40.69367215;True;True
86;K107;1301 8 AVENUE;1.0;0.0;0.6666666666666666;0.3333333333333333;0.6666666666666666;0.0;750.0;0.3066666666666667;1.1833333333333336;1.7733333333333334;0.79;0.5433333333333333;-73.956443;40.589983;True;True
87;K108;200 LINWOOD STREET;1.0;0.0;1.0;1.6666666666666667;0.6666666666666666;0.3333333333333333;1000.0;0.4533333333333333;1.6900000000000002;2.5466666666666664;1.1033333333333333;0.7733333333333333;-73.88430974819859;40.6812771;True;True
88;K110;124 MONITOR STREET;1.0;0.0;0.3333333333333333;0.0;0.3333333333333333;0.0;500.0;0.2966666666666667;1.0233333333333332;1.38;0.7200000000000001;0.47333333333333333;-73.94203290322326;40.7236399;True;True
89;K111;35 STARR STREET;2.0;0.3333333333333333;4.333333333333333;9.666666666666666;2.0;1.6666666666666667;916.6666666666666;0.42;1.49;2.3333333333333335;1.0266666666666666;0.6766666666666667;-73.9277778;40.7008333;True;True
90;K112;7115 15 AVENUE;1.0;0.0;0.3333333333333333;1.0;0.3333333333333333;0.0;750.0;0.3066666666666667;1.1833333333333336;1.7733333333333334;0.79;0.5433333333333333;-73.9005532857143;40.613930714285715;True;True
91;K113;300 ADELPHI STREET;1.3333333333333333;1.0;2.3333333333333335;1.3333333333333333;2.6666666666666665;0.6666666666666666;666.6666666666666;0.30333333333333334;1.1133333333333335;1.75;0.75;0.5133333333333333;-73.97144651452781;40.68856045;True;True
92;K114;1077 REMSEN AVENUE;1.3333333333333333;1.0;0.3333333333333333;0.3333333333333333;1.0;0.3333333333333333;750.0;0.3066666666666667;1.1833333333333336;1.7733333333333334;0.79;0.5433333333333333;-73.90804035597857;40.64274715;True;True
93;K115;1500 EAST  92 STREET;1.0;0.0;1.0;1.6666666666666667;1.0;0.0;1250.0;0.5366666666666666;2.236666666666667;3.6300000000000003;1.3466666666666667;1.0333333333333332;-73.9540269;40.6562148;True;True
94;K116;515 KNICKERBOCKER AVENUE;1.0;0.0;1.0;0.0;1.0;0.0;750.0;0.3066666666666667;1.1833333333333336;1.7733333333333334;0.79;0.5433333333333333;-73.91658550299985;40.698054850000005;True;True
95;K117;300 WILLOUGHBY AVENUE;3.0;0.3333333333333333;3.0;1.0;2.6666666666666665;0.6666666666666666;750.0;0.3066666666666667;1.1833333333333336;1.7733333333333334;0.79;0.5433333333333333;-73.9583387;40.6925521;True;True
96;K119;3829 AVENUE K;1.0;0.0;0.0;2.0;0.0;0.0;500.0;0.2966666666666667;1.0233333333333332;1.38;0.7200000000000001;0.47333333333333333;-73.93883092505925;40.6260483;True;True
97;K120;18 BEAVER STREET;1.0;0.0;0.3333333333333333;1.0;0.0;0.3333333333333333;500.0;0.2966666666666667;1.0233333333333332;1.38;0.7200000000000001;0.47333333333333333;-73.93783847045839;40.70064215;True;True
98;K121;5301 20 AVENUE;1.0;0.0;0.0;0.0;0.0;0.0;500.0;0.2966666666666667;1.0233333333333332;1.38;0.7200000000000001;0.47333333333333333;-73.985026;40.61741;True;True
99;K123;100 IRVING AVENUE;1.0;0.3333333333333333;0.0;0.6666666666666666;0.3333333333333333;0.0;916.6666666666666;0.42;1.49;2.3333333333333335;1.0266666666666666;0.6766666666666667;-73.9225745;40.7039049;True;True
100;K124;515 4 AVENUE;1.0;0.0;0.3333333333333333;0.0;0.3333333333333333;0.0;500.0;0.2966666666666667;1.0233333333333332;1.38;0.7200000000000001;0.47333333333333333;-73.96667056926604;40.5888610748528;True;True
101;K126;424 LEONARD STREET;3.0;0.0;4.333333333333333;6.333333333333333;2.6666666666666665;0.6666666666666666;750.0;0.39666666666666667;1.43;2.0366666666666666;0.9733333333333333;0.6766666666666667;-73.94779234371214;40.719763549999996;True;True
102;K127;7805 7 AVENUE;1.0;0.0;0.0;0.0;0.0;0.0;750.0;0.3066666666666667;1.1833333333333336;1.7733333333333334;0.79;0.5433333333333333;-73.972367;40.67705;True;True
103;K128;2075 84 STREET;1.0;0.0;0.0;0.3333333333333333;0.0;0.0;500.0;0.2966666666666667;1.0233333333333332;1.38;0.7200000000000001;0.47333333333333333;-73.9634703260196;40.714940150000004;True;True
104;K130;70 OCEAN PARKWAY;1.0;0.0;0.6666666666666666;0.0;0.6666666666666666;0.0;833.3333333333334;0.34;1.3833333333333335;1.9866666666666666;0.8666666666666667;0.64;-73.97591940872468;40.6488791;True;True
105;K131;4305 FT HAMILTON PARKWAY;1.0;0.0;0.0;2.3333333333333335;0.0;0.0;1250.0;0.5366666666666666;2.236666666666667;3.6300000000000003;1.3466666666666667;1.0333333333333332;-73.9933334;40.6408017;True;True
106;K132;320 MANHATTAN AVENUE;1.0;0.0;0.3333333333333333;0.6666666666666666;0.3333333333333333;0.0;833.3333333333334;0.37000000000000005;1.3133333333333335;2.016666666666667;0.9;0.5966666666666667;-73.94590041536748;40.71479765;True;True
107;K135;684 LINDEN BOULEVARD;1.0;0.0;0.0;0.6666666666666666;0.0;0.0;750.0;0.3066666666666667;1.1833333333333336;1.7733333333333334;0.79;0.5433333333333333;-73.9329691722368;40.653255;True;True
108;K136;4004 4 AVENUE;2.3333333333333335;0.3333333333333333;1.3333333333333333;2.6666666666666665;0.3333333333333333;0.6666666666666666;1250.0;0.5366666666666666;2.236666666666667;3.6300000000000003;1.3466666666666667;1.0333333333333332;-73.989779;40.670272;True;True
109;K137;121 SARATOGA AVENUE;1.0;0.3333333333333333;1.3333333333333333;1.3333333333333333;0.6666666666666666;1.0;500.0;0.2966666666666667;1.0233333333333332;1.38;0.7200000000000001;0.47333333333333333;-73.91673618591065;40.68227815;True;True
110;K138;760 PROSPECT PLACE;1.3333333333333333;0.6666666666666666;0.6666666666666666;1.0;1.0;0.0;750.0;0.3066666666666667;1.1833333333333336;1.7733333333333334;0.79;0.5433333333333333;-73.95135813183899;40.6739501;True;True
111;K139;330 RUGBY ROAD;1.0;0.6666666666666666;0.3333333333333333;0.6666666666666666;0.6666666666666666;0.3333333333333333;1166.6666666666667;0.47333333333333333;2.1;3.2099999999999995;1.2100000000000002;0.9566666666666666;-73.96572959526615;40.64135435;True;True
112;K142;610 HENRY STREET;2.0;0.3333333333333333;4.333333333333333;3.0;3.3333333333333335;1.0;1500.0;0.7966666666666667;3.1666666666666665;5.463333333333334;2.023333333333333;1.49;-74.00210945330758;40.679534000000004;True;True
113;K145;100 NOLL STREET;1.0;0.6666666666666666;1.3333333333333333;0.6666666666666666;2.0;0.0;916.6666666666666;0.42;1.49;2.3333333333333335;1.0266666666666666;0.6766666666666667;-73.9323979;40.7014771;True;True
114;K147;325 BUSHWICK AVENUE;2.0;1.3333333333333333;2.6666666666666665;2.6666666666666665;2.3333333333333335;1.3333333333333333;750.0;0.3066666666666667;1.1833333333333336;1.7733333333333334;0.79;0.5433333333333333;-73.93866618540903;40.70503765;True;True
115;K148;185 ELLERY STREET;1.0;0.6666666666666666;2.3333333333333335;0.6666666666666666;2.0;1.0;500.0;0.2966666666666667;1.0233333333333332;1.38;0.7200000000000001;0.47333333333333333;-73.945277;40.6991494;True;True
116;K149;700 SUTTER AVENUE;1.0;0.6666666666666666;0.6666666666666666;1.0;0.3333333333333333;1.0;750.0;0.3066666666666667;1.1833333333333336;1.7733333333333334;0.79;0.5433333333333333;-73.8927570952102;40.669348;True;True
117;K150;364 SACKMAN STREET;1.3333333333333333;0.3333333333333333;1.3333333333333333;1.6666666666666667;0.6666666666666666;0.6666666666666666;250.0;0.3433333333333333;0.8333333333333334;1.3699999999999999;0.7133333333333333;0.3666666666666667;-73.90504290036313;40.6686411;True;True
118;K151;763 KNICKERBOCKER AVENUE;1.0;0.0;0.3333333333333333;0.6666666666666666;0.0;0.3333333333333333;500.0;0.2966666666666667;1.0233333333333332;1.38;0.7200000000000001;0.47333333333333333;-73.908228;40.6933246;True;True
119;K152;2310 GLENWOOD ROAD;2.0;0.3333333333333333;0.3333333333333333;0.6666666666666666;0.3333333333333333;0.3333333333333333;1750.0;0.6833333333333332;2.9;5.176666666666667;1.7033333333333331;1.4400000000000002;-73.9543593;40.6330674;True;True
120;K153;1970 HOMECREST AVENUE;1.0;0.0;0.3333333333333333;0.0;0.0;0.3333333333333333;750.0;0.3066666666666667;1.1833333333333336;1.7733333333333334;0.79;0.5433333333333333;-73.96002531715402;40.6011596;True;True
121;K154;1625 11 AVENUE;1.0;0.0;1.0;0.0;0.6666666666666666;0.3333333333333333;750.0;0.3066666666666667;1.1833333333333336;1.7733333333333334;0.79;0.5433333333333333;-73.95327468234429;40.590330796680256;True;True
122;K155;1355 HERKIMER STREET;1.0;0.3333333333333333;1.3333333333333333;0.3333333333333333;0.6666666666666666;1.0;666.6666666666666;0.30333333333333334;1.1133333333333335;1.75;0.75;0.5133333333333333;-73.9086515;40.6775317;True;True
123;K157;850 KENT AVENUE;1.0;0.0;0.6666666666666666;0.6666666666666666;0.6666666666666666;0.0;666.6666666666666;0.30333333333333334;1.1133333333333335;1.75;0.75;0.5133333333333333;-73.9596596;40.6952757;True;True
124;K158;400 ASHFORD STREET;1.0;0.0;0.6666666666666666;0.0;0.3333333333333333;0.3333333333333333;750.0;0.3066666666666667;1.1833333333333336;1.7733333333333334;0.79;0.5433333333333333;-73.88522812144743;40.67261275;True;True
125;K159;2781 PITKIN AVENUE;1.0;0.3333333333333333;0.6666666666666666;0.3333333333333333;1.0;0.0;1000.0;0.4533333333333333;1.6900000000000002;2.5466666666666664;1.1033333333333333;0.7733333333333333;-73.86967060950235;40.6760067;True;True
126;K160;5105 Fort Hamilton Parkway;1.0;0.0;0.0;0.0;0.0;0.0;1500.0;0.7966666666666667;3.1666666666666665;5.463333333333334;2.023333333333333;1.49;-73.9990054201757;40.63693025;True;True
127;K161;330 CROWN STREET;1.6666666666666667;0.3333333333333333;0.3333333333333333;1.3333333333333333;0.3333333333333333;0.3333333333333333;750.0;0.3266666666666667;1.3800000000000001;1.8399999999999999;0.87;0.6299999999999999;-73.9492320286737;40.6658716;True;True
128;K162;1390 WILLOUGHBY AVENUE;1.0;0.0;1.3333333333333333;2.6666666666666665;0.0;0.6666666666666666;500.0;0.2966666666666667;1.0233333333333332;1.38;0.7200000000000001;0.47333333333333333;-73.91977342485697;40.7067391;True;True
129;K163;1664 BENSON AVENUE;1.0;0.0;0.3333333333333333;0.0;0.3333333333333333;0.0;666.6666666666666;0.3133333333333333;1.0966666666666667;1.55;0.7566666666666667;0.5133333333333333;-74.00727734863412;40.6069325;True;True
130;K164;4211 14 AVENUE;1.0;0.0;0.0;0.0;0.0;0.0;750.0;0.3066666666666667;1.1833333333333336;1.7733333333333334;0.79;0.5433333333333333;-73.9402889;40.5916778;True;True
131;K165;76 LOTT AVENUE;1.0;0.6666666666666666;3.6666666666666665;2.6666666666666665;1.6666666666666667;2.6666666666666665;500.0;0.2966666666666667;1.0233333333333332;1.38;0.7200000000000001;0.47333333333333333;-73.91097613948526;40.657184900000004;True;True
132;K166;800 VAN SICLEN AVE;2.0;1.0;7.0;5.0;4.0;2.0;500.0;0.35;1.06;1.09;0.73;0.5;-73.8854448;40.6598768;True;True
133;K166 ;800 VAN SICLEN AVE;2.5;0.5;3.0;6.5;2.0;1.0;625.0;0.275;1.11;1.56;0.775;0.505;-73.8854448;40.6598768;True;True
134;K167;1025 EASTERN PARKWAY;2.3333333333333335;0.0;0.6666666666666666;0.6666666666666666;0.3333333333333333;0.0;500.0;0.2966666666666667;1.0233333333333332;1.38;0.7200000000000001;0.47333333333333333;-73.93432098654321;40.669508949999994;True;True
135;K169;4305 7 AVENUE;1.0;0.0;0.0;1.0;0.0;0.0;1750.0;0.6833333333333332;2.9;5.176666666666667;1.7033333333333331;1.4400000000000002;-73.972367;40.67705;True;True
136;K170;7109 6 AVENUE;1.0;0.3333333333333333;0.0;0.3333333333333333;0.3333333333333333;0.0;1166.6666666666667;0.5233333333333333;2.0066666666666664;3.2733333333333334;1.28;0.9333333333333332;-73.90058187755102;40.61391197959183;True;True
137;K171;528 RIDGEWOOD AVENUE;1.6666666666666667;0.0;1.3333333333333333;4.333333333333333;0.3333333333333333;1.0;833.3333333333334;0.37000000000000005;1.3133333333333335;2.016666666666667;0.9;0.5966666666666667;-73.8694440552785;40.68587144999999;True;True
138;K172;825 4 AVENUE;1.0;0.3333333333333333;0.0;0.0;0.3333333333333333;0.0;750.0;0.3066666666666667;1.1833333333333336;1.7733333333333334;0.79;0.5433333333333333;-73.9619632;40.58937542727273;True;True
139;K174;574 DUMONT AVENUE;2.6666666666666665;1.0;1.6666666666666667;1.3333333333333333;1.6666666666666667;0.6666666666666666;500.0;0.2966666666666667;1.0233333333333332;1.38;0.7200000000000001;0.47333333333333333;-73.89771030043299;40.6655431;True;True
140;K175;226 BRISTOL STREET;2.0;2.0;10.333333333333334;9.333333333333334;5.666666666666667;5.666666666666667;833.3333333333334;0.37000000000000005;1.3133333333333335;2.016666666666667;0.9;0.5966666666666667;-73.91208655530184;40.66552085;True;True
141;K176;1225 69 STREET;1.0;0.0;1.3333333333333333;0.0;1.3333333333333333;0.0;1500.0;0.7966666666666667;3.1666666666666665;5.463333333333334;2.023333333333333;1.49;-74.0051318;40.6247799;True;True
142;K177;346 AVENUE P;1.0;0.0;0.0;0.0;0.0;0.0;1000.0;0.4533333333333333;1.6900000000000002;2.5466666666666664;1.1033333333333333;0.7733333333333333;-73.97469052486619;40.60823135;True;True
143;K178;2163 DEAN STREET;1.0;0.6666666666666666;1.6666666666666667;0.6666666666666666;0.6666666666666666;1.6666666666666667;500.0;0.2966666666666667;1.0233333333333332;1.38;0.7200000000000001;0.47333333333333333;-73.9153616552255;40.6752327;True;True
144;K179;202 AVENUE C;1.0;0.0;0.3333333333333333;0.3333333333333333;0.3333333333333333;0.0;1000.0;0.4533333333333333;1.6900000000000002;2.5466666666666664;1.1033333333333333;0.7733333333333333;-73.97734279935503;40.64021665;True;True
145;K180;5601 16 AVENUE;2.0;0.3333333333333333;1.6666666666666667;1.0;1.3333333333333333;0.3333333333333333;1666.6666666666667;0.7566666666666667;3.313333333333333;5.953333333333333;1.9366666666666665;1.6633333333333333;-73.9402889;40.5916778;True;True
146;K181;1023 NEW YORK AVENUE;1.0;1.0;3.0;2.6666666666666665;1.6666666666666667;1.3333333333333333;1083.3333333333333;0.4666666666666666;1.92;2.9033333333333338;1.1700000000000002;0.8733333333333334;-73.94584420597164;40.64806245;True;True
147;K183;76 RIVERDALE AVENUE;3.3333333333333335;0.0;1.6666666666666667;3.6666666666666665;0.6666666666666666;1.0;500.0;0.2966666666666667;1.0233333333333332;1.38;0.7200000000000001;0.47333333333333333;-73.91370466995458;40.659933949999996;True;True
148;K184;273 NEWPORT STREET;1.0;0.3333333333333333;0.3333333333333333;2.6666666666666665;0.0;0.3333333333333333;750.0;0.3066666666666667;1.1833333333333336;1.7733333333333334;0.79;0.5433333333333333;-73.90485092423567;40.66025125;True;True
149;K185;8601 RIDGE BOULEVARD;1.0;0.0;0.0;0.0;0.0;0.0;750.0;0.3066666666666667;1.1833333333333336;1.7733333333333334;0.79;0.5433333333333333;-74.0334857285972;40.6236434;True;True
150;K186;7601 19 AVENUE;1.0;0.3333333333333333;0.6666666666666666;0.3333333333333333;0.6666666666666666;0.0;1000.0;0.4533333333333333;1.6900000000000002;2.5466666666666664;1.1033333333333333;0.7733333333333333;-73.9402889;40.5916778;True;True
151;K188;3314 NEPTUNE AVENUE;1.0;0.3333333333333333;1.0;1.0;1.0;0.3333333333333333;666.6666666666666;0.2933333333333334;1.18;1.6266666666666667;0.7933333333333333;0.5333333333333333;-74.0004689;40.5765632;True;True
152;K189;1100 EAST NEW YORK AVENUE;1.0;0.0;3.0;1.6666666666666667;1.0;1.6666666666666667;1250.0;0.5366666666666666;2.236666666666667;3.6300000000000003;1.3466666666666667;1.0333333333333332;-73.92572413204178;40.66543125;True;True
153;K190;590 SHEFFIELD AVENUE;2.0;0.6666666666666666;1.0;1.3333333333333333;1.3333333333333333;0.3333333333333333;500.0;0.2966666666666667;1.0233333333333332;1.38;0.7200000000000001;0.47333333333333333;-73.89478912216742;40.6622562;True;True
154;K191;1600 PARK PLACE;1.0;1.0;0.6666666666666666;0.3333333333333333;1.3333333333333333;0.0;250.0;0.3433333333333333;0.8333333333333334;1.3699999999999999;0.7133333333333333;0.3666666666666667;-73.92421081614678;40.6718039;True;True
155;K192;4715 18 AVENUE;1.0;0.0;1.0;0.0;1.0;0.0;750.0;0.3066666666666667;1.1833333333333336;1.7733333333333334;0.79;0.5433333333333333;-73.990414;40.620671;True;True
156;K193;2515 AVENUE L;1.0;0.6666666666666666;0.3333333333333333;1.0;0.6666666666666666;0.0;1000.0;0.4533333333333333;1.6900000000000002;2.5466666666666664;1.1033333333333333;0.7733333333333333;-73.95016356998714;40.6218511;True;True
157;K194;3117 AVENUE W;1.0;0.3333333333333333;0.3333333333333333;0.6666666666666666;0.6666666666666666;0.0;500.0;0.2966666666666667;1.0233333333333332;1.38;0.7200000000000001;0.47333333333333333;-73.93430218083148;40.59741655;True;True
158;K195;131 IRWIN STREET;1.0;0.0;1.0;0.0;1.0;0.0;500.0;0.2966666666666667;1.0233333333333332;1.38;0.7200000000000001;0.47333333333333333;-73.94371330311279;40.58024465;True;True
159;K196;207 BUSHWICK AVENUE;2.0;0.0;1.6666666666666667;1.6666666666666667;1.0;0.3333333333333333;750.0;0.3066666666666667;1.1833333333333336;1.7733333333333334;0.79;0.5433333333333333;-73.93973470119195;40.70878505;True;True
160;K197;1599 EAST  22 STREET;2.0;0.0;0.6666666666666666;2.0;0.3333333333333333;0.0;1000.0;0.4533333333333333;1.6900000000000002;2.5466666666666664;1.1033333333333333;0.7733333333333333;-73.9516447;40.6125705;True;True
161;K198;4105 FARRAGUT ROAD;1.0;0.0;0.0;0.3333333333333333;0.0;0.0;583.3333333333334;0.29000000000000004;1.11;1.6033333333333333;0.7533333333333333;0.5033333333333333;-73.93720706731493;40.6373822;True;True
162;K199;1100 ELM AVENUE;1.0;0.0;0.3333333333333333;0.0;0.3333333333333333;0.0;583.3333333333334;0.3;1.0933333333333335;1.4033333333333333;0.7600000000000001;0.5033333333333333;-73.962916;40.6164933;True;True
163;K200;1940 BENSON AVENUE;1.0;0.0;0.6666666666666666;0.6666666666666666;0.3333333333333333;0.3333333333333333;1500.0;0.7966666666666667;3.1666666666666665;5.463333333333334;2.023333333333333;1.49;-74.0015079;40.603019;True;True
164;K201;8010 12 AVENUE;1.0;0.3333333333333333;0.3333333333333333;1.0;0.0;0.6666666666666666;1500.0;0.7966666666666667;3.1666666666666665;5.463333333333334;2.023333333333333;1.49;-73.9402889;40.5916778;True;True
165;K202;982 HEGEMAN AVENUE;1.3333333333333333;0.3333333333333333;1.3333333333333333;5.333333333333333;1.3333333333333333;0.3333333333333333;666.6666666666666;0.30333333333333334;1.1133333333333335;1.75;0.75;0.5133333333333333;-73.87654194996011;40.6660538;True;True
166;K203;5101 AVENUE M;1.0;0.6666666666666666;1.0;0.6666666666666666;0.6666666666666666;0.6666666666666666;1000.0;0.4533333333333333;1.6900000000000002;2.5466666666666664;1.1033333333333333;0.7733333333333333;-73.92592520774168;40.621857250000005;True;True
167;K204;8101 15 AVENUE;1.0;0.0;0.3333333333333333;0.6666666666666666;0.3333333333333333;0.0;1250.0;0.5366666666666666;2.236666666666667;3.6300000000000003;1.3466666666666667;1.0333333333333332;-73.9402889;40.5916778;True;True
168;K205;6701 20 AVENUE;1.0;0.0;0.3333333333333333;0.0;0.3333333333333333;0.0;1250.0;0.5366666666666666;2.236666666666667;3.6300000000000003;1.3466666666666667;1.0333333333333332;-73.985026;40.61741;True;True
169;K206;2200 GRAVESEND NECK ROAD;1.0;0.3333333333333333;1.3333333333333333;0.3333333333333333;1.0;0.6666666666666666;1500.0;0.7966666666666667;3.1666666666666665;5.463333333333334;2.023333333333333;1.49;-73.94883;40.597332;True;True
170;K207;4011 FILLMORE AVENUE;1.0;0.0;0.0;0.3333333333333333;0.0;0.0;1500.0;0.7966666666666667;3.1666666666666665;5.463333333333334;2.023333333333333;1.49;-73.9300091604076;40.613770099999996;True;True
171;K208;4801 AVENUE D;1.0;0.0;0.0;0.6666666666666666;0.0;0.0;500.0;0.2966666666666667;1.0233333333333332;1.38;0.7200000000000001;0.47333333333333333;-73.93065448273214;40.642451050000005;True;True
172;K209;2609 EAST  7 STREET;1.0;0.0;0.0;0.3333333333333333;0.0;0.0;750.0;0.3066666666666667;1.1833333333333336;1.7733333333333334;0.79;0.5433333333333333;-73.99840675488291;40.573526900000005;True;True
173;K210;188 ROCHESTER AVENUE;2.0;1.0;2.0;2.0;1.6666666666666667;1.3333333333333333;750.0;0.3066666666666667;1.1833333333333336;1.7733333333333334;0.79;0.5433333333333333;-73.92835093704754;40.672688;True;True
174;K211;1001 EAST 100 STREET;1.3333333333333333;0.3333333333333333;3.3333333333333335;2.3333333333333335;1.3333333333333333;2.3333333333333335;750.0;0.3066666666666667;1.1833333333333336;1.7733333333333334;0.79;0.5433333333333333;-73.8958401;40.6432708;True;True
175;K212;87 BAY  49 STREET;1.0;0.0;0.0;0.6666666666666666;0.0;0.0;750.0;0.3066666666666667;1.1833333333333336;1.7733333333333334;0.79;0.5433333333333333;-73.9973329;40.6912288;True;True
176;K213;580 HEGEMAN AVENUE;1.0;0.3333333333333333;1.0;1.6666666666666667;1.0;0.3333333333333333;500.0;0.2966666666666667;1.0233333333333332;1.38;0.7200000000000001;0.47333333333333333;-73.8903145;40.6603169;True;True
177;K214;2944 PITKIN AVENUE;1.0;0.0;0.0;0.3333333333333333;0.0;0.0;1000.0;0.4533333333333333;1.6900000000000002;2.5466666666666664;1.1033333333333333;0.7733333333333333;-73.86324331837093;40.67602355;True;True
178;K215;415 AVENUE S;1.0;0.6666666666666666;0.3333333333333333;1.0;1.0;0.0;1000.0;0.4533333333333333;1.6900000000000002;2.5466666666666664;1.1033333333333333;0.7733333333333333;-73.9700927;40.6022823;True;True
179;K216;350 AVENUE X;1.0;0.3333333333333333;0.0;0.0;0.3333333333333333;0.0;750.0;0.3066666666666667;1.1833333333333336;1.7733333333333334;0.79;0.5433333333333333;-73.96992131622429;40.5901611;True;True
180;K217;1100 NEWKIRK AVENUE;1.0;0.6666666666666666;0.3333333333333333;0.6666666666666666;0.3333333333333333;0.6666666666666666;1416.6666666666667;0.7733333333333333;2.866666666666667;4.753333333333334;1.913333333333333;1.3266666666666664;-73.9661368234792;40.633545100000006;True;True
181;K218;370 FOUNTAIN AVENUE;3.0;1.0;4.0;14.666666666666666;2.3333333333333335;2.0;1083.3333333333333;0.5166666666666666;1.8266666666666669;2.966666666666667;1.24;0.85;-73.87436229920041;40.66993855;True;True
182;K219;1060 CLARKSON AVENUE;1.0;0.0;0.3333333333333333;0.6666666666666666;0.0;0.0;750.0;0.3066666666666667;1.1833333333333336;1.7733333333333334;0.79;0.5433333333333333;-73.92277531522514;40.6590023;True;True
183;K220;4812 9TH AVENUE;1.0;0.0;3.3333333333333335;3.0;2.6666666666666665;0.6666666666666666;1500.0;0.7966666666666667;3.1666666666666665;5.463333333333334;2.023333333333333;1.49;-74.00086981531499;40.6408778;True;True
184;K221;791 EMPIRE BOULEVARD;1.3333333333333333;0.6666666666666666;0.6666666666666666;1.0;0.6666666666666666;0.6666666666666666;500.0;0.2966666666666667;1.0233333333333332;1.38;0.7200000000000001;0.47333333333333333;-73.93605900498228;40.6639193;True;True
185;K222;3301 QUENTIN ROAD;1.0;0.0;0.0;0.3333333333333333;0.0;0.0;1000.0;0.4533333333333333;1.6900000000000002;2.5466666666666664;1.1033333333333333;0.7733333333333333;-73.93871503276874;40.6138118;True;True
186;K223;4200 16 AVENUE;2.0;0.0;2.3333333333333335;1.3333333333333333;1.6666666666666667;0.6666666666666666;1583.3333333333333;0.7233333333333333;2.7533333333333334;4.6866666666666665;1.7899999999999998;1.2666666666666666;-73.9402889;40.5916778;True;True
187;K224;757 WORTMAN AVENUE;1.0;0.3333333333333333;1.6666666666666667;2.0;0.3333333333333333;1.3333333333333333;750.0;0.3066666666666667;1.1833333333333336;1.7733333333333334;0.79;0.5433333333333333;-73.86591184962316;40.66471765;True;True
188;K225;1075 OCEAN VIEW AVENUE;2.0;0.3333333333333333;2.3333333333333335;2.6666666666666665;1.3333333333333333;1.3333333333333333;1500.0;0.7966666666666667;3.1666666666666665;5.463333333333334;2.023333333333333;1.49;-74.0086004;40.5801886;True;True
189;K226;6006 23 AVENUE;1.0;0.0;0.3333333333333333;0.0;0.3333333333333333;0.0;1166.6666666666667;0.5233333333333333;2.0066666666666664;3.2733333333333334;1.28;0.9333333333333332;-73.9402889;40.5916778;True;True
190;K227;6500 16 AVENUE;1.0;0.0;2.3333333333333335;4.0;0.6666666666666666;1.3333333333333333;1500.0;0.7966666666666667;3.1666666666666665;5.463333333333334;2.023333333333333;1.49;-73.9402889;40.5916778;True;True
191;K228;228 AVENUE S;1.0;0.3333333333333333;1.6666666666666667;2.6666666666666665;0.0;1.6666666666666667;1416.6666666666667;0.6966666666666668;2.8800000000000003;4.8;1.7533333333333332;1.4100000000000001;-73.97704195981112;40.60077885;True;True
192;K229;1400 BENSON AVENUE;1.0;0.0;0.0;0.3333333333333333;0.0;0.0;1250.0;0.5366666666666666;2.236666666666667;3.6300000000000003;1.3466666666666667;1.0333333333333332;-74.01342549728014;40.61032405;True;True
193;K230;1 ALBEMARLE ROAD;1.0;0.0;0.0;0.3333333333333333;0.0;0.0;1416.6666666666667;0.7733333333333333;2.866666666666667;4.753333333333334;1.913333333333333;1.3266666666666664;-73.98067742131386;40.645508199999995;True;True
194;K232;905 WINTHROP STREET;3.0;1.6666666666666667;10.0;7.666666666666667;5.0;4.333333333333333;833.3333333333334;0.37000000000000005;1.3133333333333335;2.016666666666667;0.9;0.5966666666666667;-73.9289335;40.6588889;True;True
195;K233;9301 AVENUE B;1.0;0.3333333333333333;0.0;0.0;0.0;0.3333333333333333;750.0;0.3066666666666667;1.1833333333333336;1.7733333333333334;0.79;0.5433333333333333;-73.91393265452892;40.65157225;True;True
196;K234;1875 EAST  17 STREET;1.0;0.6666666666666666;3.0;4.333333333333333;1.6666666666666667;1.6666666666666667;2000.0;0.8866666666666667;4.093333333333333;7.543333333333334;2.763333333333333;1.7433333333333334;-73.9552235;40.6045068;True;True
197;K235;525 LENOX ROAD;1.0;0.0;0.0;0.0;0.0;0.0;1416.6666666666667;0.6966666666666668;2.8800000000000003;4.8;1.7533333333333332;1.4100000000000001;-73.94069257125902;40.65519715;True;True
198;K236;6302 AVENUE U;1.0;0.0;0.0;0.0;0.0;0.0;750.0;0.3066666666666667;1.1833333333333336;1.7733333333333334;0.79;0.5433333333333333;-73.91259079871526;40.615744899999996;True;True
199;K237;50 AVENUE P;2.0;0.0;0.0;1.3333333333333333;0.0;0.0;916.6666666666666;0.38999999999999996;1.5599999999999998;2.3033333333333332;0.9933333333333333;0.7199999999999999;-73.986955;40.6071112;True;True
200;K238;1633 EAST  8 STREET;1.0;0.0;0.6666666666666666;1.0;0.3333333333333333;0.3333333333333333;750.0;0.3066666666666667;1.1833333333333336;1.7733333333333334;0.79;0.5433333333333333;-73.99845155725134;40.57886645;True;True
201;K239;2401 NEPTUNE AVENUE;1.0;0.0;0.6666666666666666;0.6666666666666666;0.3333333333333333;0.3333333333333333;1500.0;0.7966666666666667;3.1666666666666665;5.463333333333334;2.023333333333333;1.49;-73.99265679719497;40.578664950000004;True;True
202;K240;2500 NOSTRAND AVENUE;1.0;1.0;4.666666666666667;4.666666666666667;1.0;2.6666666666666665;1000.0;0.4533333333333333;1.6900000000000002;2.5466666666666664;1.1033333333333333;0.7733333333333333;-73.94680778768401;40.62370525;True;True
203;K241;976 PRESIDENT STREET;1.0;0.6666666666666666;0.6666666666666666;0.3333333333333333;1.0;0.3333333333333333;750.0;0.3066666666666667;1.1833333333333336;1.7733333333333334;0.79;0.5433333333333333;-73.96067121033443;40.66887545;True;True
204;K242;755 EAST  100 STREET;1.0;0.0;1.0;0.0;1.0;0.0;250.0;0.43;1.03;1.23;0.99;0.41;-73.89825669999999;40.6460402;True;True
205;K243;1580 DEAN STREET;1.3333333333333333;0.0;1.3333333333333333;1.6666666666666667;0.6666666666666666;0.6666666666666666;500.0;0.2966666666666667;1.0233333333333332;1.38;0.7200000000000001;0.47333333333333333;-73.93508598148867;40.675760100000005;True;True
206;K244;5404 TILDEN AVENUE;1.6666666666666667;0.0;0.0;2.0;0.0;0.0;833.3333333333334;0.34;1.3833333333333335;1.9866666666666666;0.8666666666666667;0.64;-73.92540106123812;40.64792435;True;True
207;K246;72 VERONICA PLACE;2.3333333333333335;2.3333333333333335;4.333333333333333;6.666666666666667;3.0;3.3333333333333335;666.6666666666666;0.30333333333333334;1.1133333333333335;1.75;0.75;0.5133333333333333;-73.9538149298336;40.64836425;True;True
208;K247;7000 21 AVENUE;1.0;0.0;0.6666666666666666;0.3333333333333333;0.6666666666666666;0.0;1000.0;0.4533333333333333;1.6900000000000002;2.5466666666666664;1.1033333333333333;0.7733333333333333;-73.9402889;40.5916778;True;True
209;K249;18 MARLBOROUGH ROAD;1.0;0.0;1.6666666666666667;0.3333333333333333;0.6666666666666666;1.0;1000.0;0.4533333333333333;1.6900000000000002;2.5466666666666664;1.1033333333333333;0.7733333333333333;-73.96635026644981;40.649552299999996;True;True
210;K250;108 MONTROSE AVENUE;1.0;0.0;0.3333333333333333;1.6666666666666667;0.0;0.3333333333333333;833.3333333333334;0.37000000000000005;1.3133333333333335;2.016666666666667;0.9;0.5966666666666667;-73.94599172000757;40.706751749999995;True;True
211;K251;1037 EAST  54 STREET;1.0;0.3333333333333333;0.6666666666666666;1.0;0.6666666666666666;0.3333333333333333;750.0;0.3066666666666667;1.1833333333333336;1.7733333333333334;0.79;0.5433333333333333;-73.9239955;40.6312396;True;True
212;K252;1084 LENOX ROAD;2.0;0.6666666666666666;1.0;0.3333333333333333;0.3333333333333333;0.6666666666666666;583.3333333333334;0.3;1.0933333333333335;1.4033333333333333;0.7600000000000001;0.5033333333333333;-73.9198593;40.6578814;True;True
213;K253;601 OCEANVIEW AVENUE;1.0;0.0;0.0;0.0;0.0;0.0;1000.0;0.4533333333333333;1.6900000000000002;2.5466666666666664;1.1033333333333333;0.7733333333333333;-73.96174007104202;40.580178000000004;True;True
214;K254;1801 AVENUE Y;1.0;0.0;0.0;0.0;0.0;0.0;833.3333333333334;0.34;1.3833333333333335;1.9866666666666666;0.8666666666666667;0.64;-73.9513840087545;40.59089055;True;True
215;K255;1866 EAST  17 STREET;1.0;0.0;0.0;0.6666666666666666;0.0;0.0;1000.0;0.4533333333333333;1.6900000000000002;2.5466666666666664;1.1033333333333333;0.7733333333333333;-73.9996623;40.6379042;True;True
216;K256;114 KOSCIUSKO STREET;1.0;0.3333333333333333;0.6666666666666666;1.6666666666666667;0.3333333333333333;0.6666666666666666;500.0;0.2966666666666667;1.0233333333333332;1.38;0.7200000000000001;0.47333333333333333;-73.928642;40.693241;True;True
217;K257;60 COOK STREET;1.0;0.0;1.6666666666666667;1.0;1.6666666666666667;0.0;750.0;0.3066666666666667;1.1833333333333336;1.7733333333333334;0.79;0.5433333333333333;-73.9417117992337;40.7028047;True;True
218;K258;141 MACON STREET;2.3333333333333335;1.0;4.0;6.0;0.6666666666666666;3.6666666666666665;750.0;0.39666666666666667;1.43;2.0366666666666666;0.9733333333333333;0.6766666666666667;-73.94559669550401;40.68191795;True;True
219;K259;7305 FT HAMILTON PARKWAY;1.0;0.3333333333333333;1.3333333333333333;1.6666666666666667;0.6666666666666666;0.3333333333333333;1583.3333333333333;0.7233333333333333;2.7533333333333334;4.6866666666666665;1.7899999999999998;1.2666666666666666;-74.01481477991291;40.62623455;True;True
220;K260;875 WILLIAMS AVENUE;1.3333333333333333;0.0;0.0;0.0;0.0;0.0;333.3333333333333;0.35333333333333333;0.8966666666666666;1.3566666666666667;0.7533333333333333;0.4066666666666667;-73.89437012287902;40.6541424;True;True
221;K261;314 PACIFIC STREET;1.0;0.0;1.0;0.3333333333333333;1.0;0.0;1000.0;0.4533333333333333;1.6900000000000002;2.5466666666666664;1.1033333333333333;0.7733333333333333;-73.98866540653384;40.6872177;True;True
222;K262;500 MACON STREET;1.0;0.3333333333333333;1.6666666666666667;2.6666666666666665;1.6666666666666667;0.3333333333333333;583.3333333333334;0.29000000000000004;1.11;1.6033333333333333;0.7533333333333333;0.5033333333333333;-73.92996973666165;40.68304795;True;True
223;K263;210 CHESTER STREET;2.0;1.0;2.3333333333333335;1.3333333333333333;3.0;0.3333333333333333;750.0;0.3066666666666667;1.1833333333333336;1.7733333333333334;0.79;0.5433333333333333;-73.91146393616157;40.66625475;True;True
224;K264;371 89th Street;1.0;0.0;0.0;0.6666666666666666;0.0;0.0;500.0;0.2966666666666667;1.0233333333333332;1.38;0.7200000000000001;0.47333333333333333;-74.030011;40.62099971428571;True;True
225;K265;101 PARK AVENUE;1.3333333333333333;0.3333333333333333;4.333333333333333;4.666666666666667;2.0;2.3333333333333335;583.3333333333334;0.29000000000000004;1.11;1.6033333333333333;0.7533333333333333;0.5033333333333333;-73.97608127456422;40.69698295;True;True
226;K268;133 EAST  53 STREET;1.0;0.0;0.0;1.0;0.0;0.0;500.0;0.2966666666666667;1.0233333333333332;1.38;0.7200000000000001;0.47333333333333333;-74.014034;40.645069;True;True
227;K269;1957 NOSTRAND AVENUE;1.0;0.3333333333333333;0.0;1.0;0.0;0.3333333333333333;500.0;0.2966666666666667;1.0233333333333332;1.38;0.7200000000000001;0.47333333333333333;-73.94786513289867;40.63756565;True;True
228;K270;241 EMERSON PLACE;2.0;0.0;0.3333333333333333;0.3333333333333333;0.0;0.3333333333333333;416.6666666666667;0.3566666666666667;0.9666666666666668;1.38;0.7933333333333333;0.4366666666666667;-73.96096639666527;40.691022399999994;True;True
229;K271;1137 HERKIMER STREET;3.0;1.0;8.666666666666666;3.0;7.333333333333333;1.6666666666666667;1000.0;0.4533333333333333;1.6966666666666665;2.723333333333333;1.13;0.7966666666666665;-73.91583509530741;40.678231249999996;True;True
230;K272;101-24 SEAVIEW AVENUE;1.0;0.3333333333333333;1.0;0.0;0.3333333333333333;0.6666666666666666;666.6666666666666;0.30333333333333334;1.1133333333333335;1.75;0.75;0.5133333333333333;-73.8629541;40.6555372;True;True
231;K273;923 JEROME STREET;1.0;0.0;0.6666666666666666;0.3333333333333333;0.0;0.3333333333333333;500.0;0.2966666666666667;1.0233333333333332;1.38;0.7200000000000001;0.47333333333333333;-73.87896336738052;40.65831435;True;True
232;K274;800 BUSHWICK AVENUE;1.0;0.0;0.3333333333333333;1.0;0.3333333333333333;0.0;750.0;0.3066666666666667;1.1833333333333336;1.7733333333333334;0.79;0.5433333333333333;-73.9277629;40.6946213;True;True
233;K275;985 ROCKAWAY AVENUE;4.0;1.0;4.0;4.666666666666667;2.0;2.0;750.0;0.3066666666666667;1.1833333333333336;1.7733333333333334;0.79;0.5433333333333333;-73.9066764;40.6557927;True;True
234;K276;1070 EAST  83 STREET;1.0;0.0;0.6666666666666666;0.0;0.3333333333333333;0.0;916.6666666666666;0.42;1.49;2.3333333333333335;1.0266666666666666;0.6766666666666667;-73.90796619999999;40.6337115;True;True
235;K277;2529 GERRITSEN AVENUE;1.0;0.0;0.3333333333333333;0.0;0.3333333333333333;0.0;500.0;0.2966666666666667;1.0233333333333332;1.38;0.7200000000000001;0.47333333333333333;-73.92810818874678;40.5959851;True;True
236;K278;1925 STUART STREET;1.0;0.0;3.0;4.333333333333333;1.3333333333333333;1.0;1083.3333333333333;0.4666666666666666;1.92;2.9033333333333338;1.1700000000000002;0.8733333333333334;-73.9388683;40.6066177;True;True
237;K279;1070 EAST 104 STREET;1.0;0.0;0.0;0.6666666666666666;0.0;0.0;666.6666666666666;0.30333333333333334;1.1133333333333335;1.75;0.75;0.5133333333333333;-73.8925788;40.64415839999999;True;True
238;K281;8787 24 AVENUE;1.0;0.3333333333333333;2.6666666666666665;2.6666666666666665;1.6666666666666667;0.0;1250.0;0.5366666666666666;2.236666666666667;3.6300000000000003;1.3466666666666667;1.0333333333333332;-73.985777;40.586668;True;True
239;K282;180 6 AVENUE;1.0;1.0;4.0;5.666666666666667;3.3333333333333335;1.6666666666666667;1083.3333333333333;0.4666666666666666;1.92;2.9033333333333338;1.1700000000000002;0.8733333333333334;-73.97343622099447;40.58794680662984;True;True
240;K284;213 OSBORN STREET;1.0;0.3333333333333333;2.6666666666666665;4.0;1.3333333333333333;1.6666666666666667;750.0;0.3066666666666667;1.1833333333333336;1.7733333333333334;0.79;0.5433333333333333;-73.90756195105419;40.66695295;True;True
241;K285;5909 BEVERLY ROAD;1.0;0.0;3.0;2.3333333333333335;1.6666666666666667;0.3333333333333333;916.6666666666666;0.42;1.49;2.3333333333333335;1.0266666666666666;0.6766666666666667;-73.9489324;40.6451265;True;True
242;K286;2525 HARING STREET;1.0;1.3333333333333333;0.6666666666666666;1.0;2.0;0.0;500.0;0.2966666666666667;1.0233333333333332;1.38;0.7200000000000001;0.47333333333333333;-73.9389975;40.5913896;True;True
243;K287;50 NAVY STREET;1.0;1.0;0.0;1.0;1.0;0.0;250.0;0.3433333333333333;0.8333333333333334;1.3699999999999999;0.7133333333333333;0.3666666666666667;-73.9809719;40.6978029;True;True
244;K288;2950 WEST  25 STREET;1.0;0.0;1.0;2.0;0.6666666666666666;0.3333333333333333;666.6666666666666;0.3133333333333333;1.0966666666666667;1.55;0.7566666666666667;0.5133333333333333;-73.998091;40.660397;True;True
245;K289;900 ST MARKS AVENUE;1.0;0.0;0.6666666666666666;1.6666666666666667;0.6666666666666666;0.0;583.3333333333334;0.29000000000000004;1.11;1.6033333333333333;0.7533333333333333;0.5033333333333333;-73.94268572563126;40.674224249999995;True;True
246;K290;135 SCHENCK AVENUE;1.0;0.3333333333333333;0.3333333333333333;0.6666666666666666;0.6666666666666666;0.0;750.0;0.3066666666666667;1.1833333333333336;1.7733333333333334;0.79;0.5433333333333333;-73.88948641024123;40.678168150000005;True;True
247;K291;231 PALMETTO STREET;3.0;0.3333333333333333;1.0;10.666666666666666;0.3333333333333333;1.0;833.3333333333334;0.37000000000000005;1.3133333333333335;2.016666666666667;0.9;0.5966666666666667;-73.91548106682134;40.69562085;True;True
248;K292;300 WYONA STREET/ 301 VERMONT STREET;2.0;3.0;4.0;12.0;3.0;4.0;750.0;0.33;1.32;1.76;0.83;0.59;-73.8929276;40.6714439;True;True
249;K292;301 VERMONT STREET;2.0;2.0;5.0;7.5;3.0;3.5;750.0;0.29500000000000004;1.1150000000000002;1.78;0.77;0.52;-73.8936057;40.6713428;True;True
250;K293;284 BALTIC STREET;3.0;0.6666666666666666;7.0;4.666666666666667;5.0;2.0;833.3333333333334;0.37000000000000005;1.3133333333333335;2.016666666666667;0.9;0.5966666666666667;-73.99329318492642;40.685011450000005;True;True
251;K296;125 COVERT STREET;1.3333333333333333;0.3333333333333333;2.3333333333333335;3.0;1.6666666666666667;1.0;500.0;0.2966666666666667;1.0233333333333332;1.38;0.7200000000000001;0.47333333333333333;-73.91033179320195;40.688913400000004;True;True
252;K297;700 PARK AVENUE;1.3333333333333333;0.0;0.3333333333333333;0.0;0.3333333333333333;0.0;416.6666666666667;0.32666666666666666;0.9066666666666667;1.3099999999999998;0.6666666666666666;0.4366666666666667;-73.94789759704214;40.6974432;True;True
253;K298;85 WATKINS STREET;2.0;0.0;1.6666666666666667;4.666666666666667;0.6666666666666666;1.0;500.0;0.2966666666666667;1.0233333333333332;1.38;0.7200000000000001;0.47333333333333333;-73.9077196558774;40.67102145;True;True
254;K299;88 WOODBINE STREET;1.0;0.0;0.6666666666666666;0.3333333333333333;0.0;0.6666666666666666;500.0;0.2966666666666667;1.0233333333333332;1.38;0.7200000000000001;0.47333333333333333;-73.9180532;40.6910367;True;True
255;K302;350 LINWOOD STREET;3.6666666666666665;0.6666666666666666;4.0;8.0;4.0;0.6666666666666666;1166.6666666666667;0.54;2.1266666666666665;3.6766666666666663;1.3499999999999999;1.0133333333333334;-73.8838889;40.6766667;True;True
256;K303;521 WEST AVENUE;3.0;1.6666666666666667;4.0;4.666666666666667;3.6666666666666665;1.3333333333333333;1250.0;0.5366666666666666;2.236666666666667;3.6300000000000003;1.3466666666666667;1.0333333333333332;-73.97157061224489;40.58211781632653;True;True
257;K304;280 HART STREET;2.0;0.3333333333333333;0.0;0.3333333333333333;0.3333333333333333;0.0;500.0;0.2966666666666667;1.0233333333333332;1.38;0.7200000000000001;0.47333333333333333;-73.94073649598081;40.69375945;True;True
258;K305;344 MONROE STREET;2.0;0.3333333333333333;1.3333333333333333;2.0;1.0;0.3333333333333333;500.0;0.2966666666666667;1.0233333333333332;1.38;0.7200000000000001;0.47333333333333333;-73.9452714808277;40.68579005;True;True
259;K306;970 VERMONT STREET;1.0;1.0;4.0;6.666666666666667;2.6666666666666665;2.3333333333333335;750.0;0.3066666666666667;1.1833333333333336;1.7733333333333334;0.79;0.5433333333333333;-73.88629143400516;40.6551941;True;True
260;K307;209 YORK STREET;2.0;0.0;1.0;0.6666666666666666;0.3333333333333333;0.3333333333333333;583.3333333333334;0.31;1.0266666666666666;1.5266666666666666;0.7166666666666667;0.48333333333333334;-73.98165918779881;40.70172445;True;True
261;K308;616 QUINCY STREET;2.0;0.3333333333333333;2.3333333333333335;2.6666666666666665;1.3333333333333333;1.0;583.3333333333334;0.3;1.0933333333333335;1.4033333333333333;0.7600000000000001;0.5033333333333333;-73.93522948328686;40.6882961;True;True
262;K309;794 MONROE STREET;2.0;0.3333333333333333;0.6666666666666666;1.0;0.6666666666666666;0.3333333333333333;666.6666666666666;0.3333333333333333;1.2933333333333332;1.6166666666666665;0.8366666666666666;0.6;-73.92437489384153;40.68811325;True;True
263;K310;942 62ND STREET;1.0;0.0;0.3333333333333333;0.3333333333333333;0.0;0.3333333333333333;500.0;0.2966666666666667;1.0233333333333332;1.38;0.7200000000000001;0.47333333333333333;-74.00756275357476;40.63225145;True;True
264;K312;7103 AVENUE T;1.0;0.3333333333333333;0.0;0.3333333333333333;0.3333333333333333;0.0;1000.0;0.4533333333333333;1.6900000000000002;2.5466666666666664;1.1033333333333333;0.7733333333333333;-73.90927668309845;40.6219272;True;True
265;K313;283 ADAMS STREET;2.0;1.0;1.3333333333333333;6.666666666666667;1.0;1.3333333333333333;1000.0;0.4533333333333333;1.6900000000000002;2.5466666666666664;1.1033333333333333;0.7733333333333333;-73.98832879336612;40.69463915;True;True
266;K314;330 59 STREET;2.0;0.3333333333333333;1.6666666666666667;1.3333333333333333;2.0;0.0;2000.0;0.8866666666666667;4.093333333333333;7.543333333333334;2.763333333333333;1.7433333333333334;-74.017881;40.641362;True;True
267;K316;750 CLASSON AVENUE;2.0;0.3333333333333333;1.6666666666666667;2.0;1.3333333333333333;0.6666666666666666;750.0;0.3066666666666667;1.1833333333333336;1.7733333333333334;0.79;0.5433333333333333;-73.96092770912671;40.67457635;True;True
268;K317;610 BALTIC STREET;1.0;0.0;0.0;0.6666666666666666;0.0;0.0;666.6666666666666;0.3133333333333333;1.0966666666666667;1.55;0.7566666666666667;0.5133333333333333;-73.98064767346939;40.68039791836735;True;True
269;K318;101 WALTON STREET;1.0;0.3333333333333333;2.6666666666666665;3.3333333333333335;1.0;1.6666666666666667;1666.6666666666667;0.7566666666666667;3.313333333333333;5.953333333333333;1.9366666666666665;1.6633333333333333;-73.9482279;40.7032106;True;True
270;K319;360 KEAP STREET;1.0;0.0;0.0;0.0;0.0;0.0;250.0;0.3433333333333333;0.8333333333333334;1.3699999999999999;0.7133333333333333;0.3666666666666667;-73.95407497296418;40.7096294;True;True
271;K320;46 MCKEEVER PLACE;2.0;2.3333333333333335;2.0;5.0;2.0;2.3333333333333335;833.3333333333334;0.37000000000000005;1.3133333333333335;2.016666666666667;0.9;0.5966666666666667;-73.9594512;40.6651049;True;True
272;K321;180 7 AVENUE;1.0;0.0;0.3333333333333333;0.0;0.0;0.3333333333333333;1500.0;0.7966666666666667;3.1666666666666665;5.463333333333334;2.023333333333333;1.49;-73.97343622099447;40.58794680662984;True;True
273;K324;800 GATES AVENUE;3.0;2.3333333333333335;2.6666666666666665;4.333333333333333;3.0;2.0;666.6666666666666;0.4266666666666666;1.3133333333333335;1.9666666666666668;0.9199999999999999;0.64;-73.932454;40.68819;True;True
274;K327;111 BRISTOL STREET;1.0;1.0;4.666666666666667;6.0;3.0;2.3333333333333335;750.0;0.3066666666666667;1.1833333333333336;1.7733333333333334;0.79;0.5433333333333333;-73.9120848;40.6679799;True;True
275;K328;330 ALABAMA AVENUE;2.0;0.0;0.0;0.0;0.0;0.0;666.6666666666666;0.3333333333333333;1.2933333333333332;1.6166666666666665;0.8366666666666666;0.6;-73.89840684542546;40.66778445;True;True
276;K329;2929 WEST  30 STREET;1.0;0.0;2.3333333333333335;1.3333333333333333;1.3333333333333333;1.0;500.0;0.2966666666666667;1.0233333333333332;1.38;0.7200000000000001;0.47333333333333333;-73.9957664;40.5746928;True;True
277;K331;7002 4TH AVENUE;1.0;0.0;1.0;0.3333333333333333;0.6666666666666666;0.3333333333333333;750.0;0.3066666666666667;1.1833333333333336;1.7733333333333334;0.79;0.5433333333333333;-73.9784973;40.6840336;True;True
278;K332;51 CHRISTOPHER AVENUE;2.3333333333333335;0.3333333333333333;0.6666666666666666;1.3333333333333333;0.6666666666666666;0.0;750.0;0.39666666666666667;1.43;2.0366666666666666;0.9733333333333333;0.6766666666666667;-73.90605224441892;40.67234655;True;True
279;K333;4222 4th Avenue;1.0;0.0;0.0;1.0;0.0;0.0;375.0;0.315;0.8300000000000001;1.42;0.635;0.405;-74.0085124;40.6506653;True;True
280;K335;130 ROCHESTER AVENUE;2.0;0.3333333333333333;1.6666666666666667;4.0;1.6666666666666667;0.3333333333333333;583.3333333333334;0.29000000000000004;1.11;1.6033333333333333;0.7533333333333333;0.5033333333333333;-73.92819180843519;40.67444105;True;True
281;K345;111 BERRIMAN STREET;1.0;0.3333333333333333;0.3333333333333333;0.3333333333333333;0.6666666666666666;0.0;750.0;0.3066666666666667;1.1833333333333336;1.7733333333333334;0.79;0.5433333333333333;-73.87987786537971;40.676174;True;True
282;K346;1400 PENNSYLVANIA AVENUE;2.0;0.3333333333333333;1.0;3.3333333333333335;0.0;1.0;1000.0;0.4533333333333333;1.6900000000000002;2.5466666666666664;1.1033333333333333;0.7733333333333333;-73.88188061978047;40.6467453;True;True
283;K356;104 SUTTER AVENUE;2.0;0.3333333333333333;1.6666666666666667;1.0;1.3333333333333333;0.6666666666666666;1250.0;0.5366666666666666;2.236666666666667;3.6300000000000003;1.3466666666666667;1.0333333333333332;-73.9182394;40.6658429;True;True
284;K364;1426 FREEPORT LOOP;1.0;0.0;0.3333333333333333;0.6666666666666666;0.0;0.0;500.0;0.2966666666666667;1.0233333333333332;1.38;0.7200000000000001;0.47333333333333333;-73.88095711805084;40.64631475;True;True
285;K366;965 EAST 107TH STREET;1.0;0.0;1.3333333333333333;1.3333333333333333;1.0;0.0;583.3333333333334;0.31;1.0266666666666666;1.5266666666666666;0.7166666666666667;0.48333333333333334;-73.89176424568717;40.647414100000006;True;True
286;K369;383 STATE STREET;1.0;1.3333333333333333;0.6666666666666666;1.0;0.3333333333333333;1.3333333333333333;750.0;0.3066666666666667;1.1833333333333336;1.7733333333333334;0.79;0.5433333333333333;-73.98355146660099;40.687434800000005;True;True
287;K370;3000 WEST 1 STREET;2.0;0.0;0.0;0.3333333333333333;0.0;0.0;416.6666666666667;0.2866666666666667;0.96;1.3933333333333333;0.68;0.43333333333333335;-73.9698657;40.5776747;True;True
288;K371;355 37 STREET;1.0;4.0;7.666666666666667;5.333333333333333;5.0;6.0;500.0;0.2966666666666667;1.0233333333333332;1.38;0.7200000000000001;0.47333333333333333;-73.9996623;40.6379042;True;True
289;K376;194 HARMAN STREET;1.0;0.0;0.6666666666666666;0.0;0.6666666666666666;0.0;750.0;0.3066666666666667;1.1833333333333336;1.7733333333333334;0.79;0.5433333333333333;-73.920248;40.6983431;True;True
290;K377;200 WOODBINE STREET;1.6666666666666667;0.0;1.6666666666666667;1.0;0.6666666666666666;0.3333333333333333;666.6666666666666;0.2933333333333334;1.18;1.6266666666666667;0.7933333333333333;0.5333333333333333;-73.91494013630094;40.6937556;True;True
291;K380;370 MARCY AVENUE;1.0;0.0;0.0;0.6666666666666666;0.0;0.0;750.0;0.3066666666666667;1.1833333333333336;1.7733333333333334;0.79;0.5433333333333333;-73.95346513881864;40.7018891;True;True
292;K383;1300 GREENE AVENUE;2.0;0.3333333333333333;3.6666666666666665;3.0;4.0;0.0;1083.3333333333333;0.5166666666666666;1.8266666666666669;2.966666666666667;1.24;0.85;-73.9195423;40.6977934;True;True
293;K384;242 COOPER STREET;1.0;0.3333333333333333;1.6666666666666667;1.3333333333333333;0.3333333333333333;1.6666666666666667;750.0;0.3066666666666667;1.1833333333333336;1.7733333333333334;0.79;0.5433333333333333;-73.90505438519084;40.68973305;True;True
294;K390;1224 PARK PLACE;2.6666666666666665;0.3333333333333333;0.6666666666666666;2.0;0.3333333333333333;0.3333333333333333;750.0;0.39666666666666667;1.43;2.0366666666666666;0.9733333333333333;0.6766666666666667;-73.9372224935157;40.67227315;True;True
295;K391;790 EAST NEW YORK AVENUE;2.3333333333333335;2.0;5.0;3.6666666666666665;5.0;1.3333333333333333;833.3333333333334;0.42;1.7299999999999998;2.746666666666666;1.0833333333333333;0.84;-73.93645592173652;40.66199745;True;True
296;K395;1001 EAST  45 STREET;1.0;0.3333333333333333;0.3333333333333333;1.3333333333333333;0.3333333333333333;0.3333333333333333;750.0;0.3066666666666667;1.1833333333333336;1.7733333333333334;0.79;0.5433333333333333;-74.010006;40.648939;True;True
297;K396;110 CHESTER STREET;1.0;0.0;1.0;1.0;0.6666666666666666;0.3333333333333333;500.0;0.2966666666666667;1.0233333333333332;1.38;0.7200000000000001;0.47333333333333333;-73.9113762;40.6679669;True;True
298;K397;490 FENIMORE STREET;1.0;0.3333333333333333;0.3333333333333333;0.3333333333333333;0.6666666666666666;0.0;500.0;0.2966666666666667;1.0233333333333332;1.38;0.7200000000000001;0.47333333333333333;-73.9462613125;40.658868687500004;True;True
299;K398;60 EAST  94 STREET;2.0;0.0;0.6666666666666666;1.0;0.3333333333333333;0.3333333333333333;750.0;0.3066666666666667;1.1833333333333336;1.7733333333333334;0.79;0.5433333333333333;-73.92780739999999;40.66390699999999;True;True
300;K399;2707 ALBEMARLE ROAD;1.0;0.0;0.0;0.6666666666666666;0.0;0.0;666.6666666666666;0.30333333333333334;1.1133333333333335;1.75;0.75;0.5133333333333333;-73.9519444;40.6483333;True;True
301;K400;2630 BENSON AVENUE;5.0;1.3333333333333333;7.333333333333333;7.666666666666667;6.666666666666667;1.0;2000.0;0.8866666666666667;4.093333333333333;7.543333333333334;2.763333333333333;1.7433333333333334;-73.98621246953113;40.59353805;True;True
302;K405;2839 BEDFORD AVENUE;1.0;2.0;7.333333333333333;4.666666666666667;6.0;2.6666666666666665;4000.0;1.61;8.246666666666668;14.633333333333333;5.0;3.0666666666666664;-73.9525804;40.6328096;True;True
303;K410;2800 OCEAN PARKWAY;2.0;3.3333333333333335;8.333333333333334;26.666666666666668;3.3333333333333335;7.0;2833.3333333333335;2.65;10.496666666666666;27.823333333333334;5.506666666666667;5.413333333333334;-73.9683394685555;40.582368;True;True
304;K415;5800 TILDEN AVENUE;3.6666666666666665;4.333333333333333;12.333333333333334;8.0;10.666666666666666;5.666666666666667;1416.6666666666667;0.6966666666666668;2.8800000000000003;4.8;1.7533333333333332;1.4100000000000001;-73.9215436;40.6477763;True;True
305;K420;999 JAMAICA AVENUE;5.0;2.3333333333333335;6.333333333333333;23.666666666666668;2.6666666666666665;5.333333333333333;1583.3333333333333;0.7800000000000001;3.3966666666666665;5.783333333333334;2.066666666666667;1.6533333333333333;-73.86907525829018;40.6930081;True;True
306;K422;1065 ELTON STREET;2.0;0.6666666666666666;3.6666666666666665;2.6666666666666665;2.3333333333333335;1.6666666666666667;916.6666666666666;0.38999999999999996;1.5599999999999998;2.3033333333333332;0.9933333333333333;0.7199999999999999;-73.87518348979592;40.65820304081633;True;True
307;K425;3787 BEDFORD AVENUE;1.0;2.3333333333333335;13.0;23.0;5.0;7.333333333333333;4000.0;1.61;8.246666666666668;14.633333333333333;5.0;3.0666666666666664;-73.94772792631059;40.610233300000004;True;True
308;K430;29 FT GREENE PLACE;1.0;1.3333333333333333;5.333333333333333;7.666666666666667;2.6666666666666665;1.0;4000.0;1.5766666666666669;8.29;9.799999999999999;6.243333333333332;2.1999999999999997;-73.97640887345645;40.6887573;True;True
309;K435;400 PENNSYLVANIA AVENUE;5.0;2.3333333333333335;7.0;27.333333333333332;4.0;4.333333333333333;1666.6666666666667;0.7566666666666667;3.313333333333333;5.953333333333333;1.9366666666666665;1.6633333333333333;-73.89513673973363;40.6669096;True;True
310;K440;883 CLASSON AVENUE;4.0;0.6666666666666666;9.666666666666666;18.333333333333332;3.6666666666666665;5.333333333333333;1583.3333333333333;0.7800000000000001;3.3966666666666665;5.783333333333334;2.066666666666667;1.6533333333333333;-73.96033977366244;40.66994585;True;True
311;K445;1601 80 STREET;2.0;1.0;6.333333333333333;14.333333333333334;3.3333333333333335;2.6666666666666665;4000.0;1.61;8.246666666666668;14.633333333333333;5.0;3.0666666666666664;-74.0023923;40.6131868;True;True
312;K450;850 GRAND STREET;3.0;4.0;14.666666666666666;55.333333333333336;12.0;4.666666666666667;2833.3333333333335;2.65;10.496666666666666;27.823333333333334;5.506666666666667;5.413333333333334;-73.9391759;40.7118943;True;True
313;K455;1700 FULTON STREET;3.6666666666666665;4.0;4.666666666666667;23.0;5.333333333333333;2.0;1250.0;0.5733333333333333;2.3866666666666663;3.8733333333333335;1.4799999999999998;1.0366666666666666;-73.93166373603927;40.67889925;True;True
314;K458;832 MARCY AVENUE;3.3333333333333335;0.6666666666666666;2.0;3.6666666666666665;1.6666666666666667;0.6666666666666666;833.3333333333334;0.42;1.7299999999999998;2.746666666666666;1.0833333333333333;0.84;-73.9475228;40.6846677;True;True
315;K460;237 7 AVENUE;4.333333333333333;1.6666666666666667;9.666666666666666;13.666666666666666;6.333333333333333;4.0;1666.6666666666667;0.7399999999999999;2.7933333333333334;5.153333333333333;1.75;1.3399999999999999;-73.972367;40.67705;True;True
316;K465;911 FLATBUSH AVENUE;6.0;3.0;8.666666666666666;13.666666666666666;5.0;6.0;2500.0;2.013333333333333;7.596666666666667;15.726666666666668;4.776666666666666;3.7733333333333334;-73.9582574;40.6495043;True;True
317;K470;600 KINGSTON AVENUE;4.333333333333333;1.6666666666666667;8.0;12.666666666666666;6.0;3.6666666666666665;1583.3333333333333;0.7633333333333333;2.876666666666667;4.983333333333333;1.88;1.3299999999999998;-73.94361849010039;40.6583284;True;True
318;K480;400 IRVING AVENUE;4.0;1.3333333333333333;9.333333333333334;29.666666666666668;5.333333333333333;3.3333333333333335;1416.6666666666667;0.7733333333333333;2.866666666666667;4.753333333333334;1.913333333333333;1.3266666666666664;-73.9113818;40.6970899;True;True
319;K485;350 67 STREET;1.0;0.0;2.6666666666666665;4.0;1.6666666666666667;0.3333333333333333;1500.0;0.7966666666666667;3.1666666666666665;5.463333333333334;2.023333333333333;1.49;-73.9996623;40.6379042;True;True
320;K486;1171 65 STREET;1.0;0.0;0.0;0.3333333333333333;0.0;0.0;1083.3333333333333;0.45999999999999996;1.8699999999999999;2.853333333333333;1.1433333333333333;0.8566666666666666;-73.9996623;40.6379042;True;True
321;K490;8301 SHORE ROAD;1.0;1.6666666666666667;8.333333333333334;9.666666666666666;7.0;2.3333333333333335;4000.0;1.5766666666666669;8.29;9.799999999999999;6.243333333333332;2.1999999999999997;-74.0397375;40.627236;True;True
322;K495;3000 AVENUE X;5.0;3.0;10.0;20.666666666666668;8.0;3.6666666666666665;1333.3333333333333;0.6533333333333333;2.643333333333333;4.696666666666666;1.6866666666666665;1.1933333333333334;-73.93667411834863;40.59351635;True;True
323;K500;1600 ROCKAWAY PARKWAY;3.0;1.3333333333333333;4.0;12.666666666666666;1.6666666666666667;2.6666666666666665;1250.0;0.5366666666666666;2.236666666666667;3.6300000000000003;1.3466666666666667;1.0333333333333332;-73.8981466;40.6411019;True;True
324;K505;5800 20 AVENUE;2.0;0.0;5.333333333333333;9.0;3.0;1.3333333333333333;4000.0;1.61;8.246666666666668;14.633333333333333;5.0;3.0666666666666664;-73.985026;40.61741;True;True
325;K515;6565 FLATLANDS AVENUE;6.0;2.6666666666666665;7.0;19.666666666666668;5.333333333333333;3.0;1750.0;0.7566666666666667;3.8066666666666666;6.609999999999999;2.25;1.8466666666666667;-73.9175544;40.6336432;True;True
326;K520;112 SCHERMERHORN STREET;1.0;1.0;1.0;5.666666666666667;1.3333333333333333;0.6666666666666666;250.0;0.3433333333333333;0.8333333333333334;1.3699999999999999;0.7133333333333333;0.3666666666666667;-73.9893526;40.6900156;True;True
327;K525;1600 AVENUE L;1.0;2.3333333333333335;8.333333333333334;10.0;7.666666666666667;1.6666666666666667;4000.0;1.8433333333333335;8.89;12.576666666666666;6.3999999999999995;2.5566666666666666;-73.95896885766066;40.6197588;True;True
328;K535;1830 SHORE BOULEVARD;1.0;0.0;0.0;0.0;0.0;0.0;1250.0;0.5366666666666666;2.236666666666667;3.6300000000000003;1.3466666666666667;1.0333333333333332;-73.93516032364317;40.580364349999996;True;True
329;K540;50 AVENUE X;1.3333333333333333;1.3333333333333333;9.333333333333334;9.333333333333334;4.0;6.333333333333333;2333.3333333333335;1.4866666666666666;6.776666666666666;13.996666666666668;4.116666666666667;3.2366666666666664;-73.98116657499443;40.587629;True;True
330;K554;321 PALMETTO STREET;1.0;0.0;0.0;0.6666666666666666;0.0;0.0;500.0;0.2966666666666667;1.0233333333333332;1.38;0.7200000000000001;0.47333333333333333;-73.91320853124999;40.697455562500004;True;True
331;K564;153 35TH STREET;1.0;1.3333333333333333;3.6666666666666665;4.333333333333333;1.3333333333333333;3.6666666666666665;1500.0;0.7966666666666667;3.1666666666666665;5.463333333333334;2.023333333333333;1.49;-74.0045642;40.6554547;True;True
332;K580;105 JOHNSON STREET;5.0;3.0;9.0;13.0;6.0;4.0;1500.0;0.86;3.26;5.55;2.17;1.29;-73.9856024936999;40.69544665;True;True
333;K580;105 TECH PLACE;3.0;0.5;5.5;12.5;1.0;4.5;1375.0;0.73;2.67;4.355;1.7850000000000001;1.345;-73.9856024936999;40.69544665;True;True
334;K590;1186 CARROLL STREET;1.0;1.0;3.0;1.6666666666666667;3.3333333333333335;0.3333333333333333;1333.3333333333333;0.6733333333333333;2.58;4.090000000000001;1.6433333333333333;1.2466666666666668;-73.95118485801015;40.66693295;True;True
335;K600;901 CLASSON AVENUE;1.0;3.0;8.666666666666666;15.333333333333334;3.0;8.333333333333334;1583.3333333333333;0.7800000000000001;3.3966666666666665;5.783333333333334;2.066666666666667;1.6533333333333333;-73.96172952562546;40.6690504;True;True
336;K610;50 BEDFORD AVENUE;3.0;1.0;2.3333333333333335;7.666666666666667;2.3333333333333335;0.3333333333333333;833.3333333333334;0.4166666666666667;1.42;2.31;0.9866666666666667;0.6466666666666666;-73.95340052330442;40.7222456;True;True
337;K615;1 WELLS STREET;1.0;1.0;6.666666666666667;10.333333333333334;2.6666666666666665;4.333333333333333;1250.0;0.5366666666666666;2.236666666666667;3.6300000000000003;1.3466666666666667;1.0333333333333332;-73.8752297;40.6785352;True;True
338;K620;25 BRIGHTON  4TH ROAD;1.3333333333333333;3.3333333333333335;2.6666666666666665;12.0;3.0;2.6666666666666665;750.0;0.3066666666666667;1.1833333333333336;1.7733333333333334;0.79;0.5433333333333333;-73.96348874041547;40.5833954;True;True
339;K625;150 ALBANY AVENUE;2.3333333333333335;0.3333333333333333;4.333333333333333;14.0;2.6666666666666665;1.6666666666666667;916.6666666666666;0.38999999999999996;1.5599999999999998;2.3033333333333332;0.9933333333333333;0.7199999999999999;-73.93930621189718;40.675933650000005;True;True
340;K650;257 NORTH  6 STREET;3.0;1.3333333333333333;6.666666666666667;25.666666666666668;5.0;3.0;1916.6666666666667;0.8866666666666667;3.6;6.886666666666667;2.4499999999999997;1.5599999999999998;-73.99869956624826;40.573797049999996;True;True
341;K655;345 DEAN STREET;2.0;1.0;7.333333333333333;7.333333333333333;5.666666666666667;1.0;1500.0;0.7966666666666667;3.1666666666666665;5.463333333333334;2.023333333333333;1.49;-73.9802603;40.6837209;True;True
342;K660;145 PENNSYLVANIA AVENUE;1.0;1.0;3.0;7.333333333333333;0.3333333333333333;2.6666666666666665;583.3333333333334;0.31;1.0266666666666666;1.5266666666666666;0.7166666666666667;0.48333333333333334;-73.89602734953094;40.6737205;True;True
343;K721;8310 21ST AVENUE;1.0;0.0;1.6666666666666667;2.6666666666666665;0.3333333333333333;0.6666666666666666;1000.0;0.4533333333333333;1.6900000000000002;2.5466666666666664;1.1033333333333333;0.7733333333333333;-73.9953948;40.6050263;True;True
344;K722;64 AVENUE X;1.0;0.0;0.3333333333333333;0.0;0.3333333333333333;0.0;666.6666666666666;0.3133333333333333;1.0966666666666667;1.55;0.7566666666666667;0.5133333333333333;-73.98129535602811;40.58906175;True;True
345;K728;2865 WEST 19TH STREET;1.0;0.6666666666666666;1.0;4.333333333333333;1.3333333333333333;0.0;250.0;0.3433333333333333;0.8333333333333334;1.3699999999999999;0.7133333333333333;0.3666666666666667;-73.98563629884323;40.57715905;True;True
346;K735;249 EAST 17TH STREET;1.0;0.0;0.3333333333333333;0.3333333333333333;0.3333333333333333;0.0;500.0;0.2966666666666667;1.0233333333333332;1.38;0.7200000000000001;0.47333333333333333;-73.9630246;40.6448767;True;True
347;K763;211 8TH STREET;1.0;0.0;0.0;0.0;0.0;0.0;250.0;0.3433333333333333;0.8333333333333334;1.3699999999999999;0.7133333333333333;0.3666666666666667;-73.98776237084077;40.67102405;True;True
348;K778;250 HOOPER STREET;1.0;0.6666666666666666;1.3333333333333333;1.0;2.0;0.0;250.0;0.3433333333333333;0.8333333333333334;1.3699999999999999;0.7133333333333333;0.3666666666666667;-73.95554066941271;40.7056467;True;True
349;K781;1053 41ST STREET;1.0;0.0;1.0;0.6666666666666666;1.0;0.0;250.0;0.3433333333333333;0.8333333333333334;1.3699999999999999;0.7133333333333333;0.3666666666666667;-73.99255826267108;40.64282825;True;True
350;K798;696 JAMAICA AVENUE;1.0;0.0;0.0;0.0;0.0;0.0;750.0;0.3066666666666667;1.1833333333333336;1.7733333333333334;0.79;0.5433333333333333;-73.87837563158729;40.686891450000005;True;True
351;K804;347 BALTIC STREET;1.0;1.0;3.0;8.333333333333334;0.3333333333333333;3.6666666666666665;750.0;0.3066666666666667;1.1833333333333336;1.7733333333333334;0.79;0.5433333333333333;-73.9910292;40.6846795;True;True
352;K805;49 FLATBUSH AVENUE EXTENSION;3.0;1.6666666666666667;5.666666666666667;12.666666666666666;3.0;2.6666666666666665;1416.6666666666667;0.7733333333333333;2.866666666666667;4.753333333333334;1.913333333333333;1.3266666666666664;-73.9848651;40.6974003;True;True
353;K806;362 SCHERMERHORN STREET;1.3333333333333333;0.6666666666666666;1.3333333333333333;2.3333333333333335;1.3333333333333333;0.3333333333333333;250.0;0.3433333333333333;0.8333333333333334;1.3699999999999999;0.7133333333333333;0.3666666666666667;-73.9796992;40.6864422;True;True
354;K807;109 BAY 14TH STREET;1.0;0.0;0.0;2.0;0.0;0.0;750.0;0.29500000000000004;1.1150000000000002;1.78;0.77;0.52;-74.00761786124374;40.6066057;True;True
355;K814;265 WARWICK STREET;1.0;0.0;0.0;0.6666666666666666;0.0;0.0;500.0;0.2966666666666667;1.0233333333333332;1.38;0.7200000000000001;0.47333333333333333;-73.88669291516872;40.6777282;True;True
356;K819;2057 LINDEN BOULEVARD;1.0;0.0;0.0;1.3333333333333333;0.0;0.0;500.0;0.2966666666666667;1.0233333333333332;1.38;0.7200000000000001;0.47333333333333333;-73.88675570069428;40.6612937;True;True
357;K824;402 EASTERN PARKWAY;1.6666666666666667;0.6666666666666666;1.3333333333333333;2.0;1.3333333333333333;0.3333333333333333;250.0;0.3433333333333333;0.8333333333333334;1.3699999999999999;0.7133333333333333;0.3666666666666667;-73.95515980867384;40.66951885;True;True
358;K825;173 CONOVER STREET;1.0;0.0;1.0;0.6666666666666666;0.6666666666666666;0.3333333333333333;250.0;0.3433333333333333;0.8333333333333334;1.3699999999999999;0.7133333333333333;0.3666666666666667;-74.01420467275423;40.6777929;True;True
359;K834;512 CARROLL STREET;2.0;0.0;1.0;0.3333333333333333;1.0;0.0;583.3333333333334;0.29333333333333333;1.05;1.7633333333333334;0.71;0.4733333333333334;-73.98560571410988;40.67642825;True;True
360;K843;530 STANLEY AVENUE;1.0;0.0;0.0;0.0;0.0;0.0;500.0;0.2966666666666667;1.0233333333333332;1.38;0.7200000000000001;0.47333333333333333;-73.8888393;40.6570252;True;True
361;K845;330 18 STREET;2.0;0.0;0.3333333333333333;0.6666666666666666;0.3333333333333333;0.0;1250.0;0.5366666666666666;2.236666666666667;3.6300000000000003;1.3466666666666667;1.0333333333333332;-73.9996623;40.6379042;True;True
362;K849;4001 18 AVENUE;1.0;0.0;0.0;0.0;0.0;0.0;750.0;0.3066666666666667;1.1833333333333336;1.7733333333333334;0.79;0.5433333333333333;-73.990414;40.620671;True;True
363;K852;1800 UTICA AVENUE;1.0;0.0;0.0;0.0;0.0;0.0;250.0;0.34333333333333327;0.8333333333333334;1.3699999999999999;0.7133333333333334;0.3666666666666667;-73.92825617904788;40.628422650000005;True;True
364;K857;2045 LINDEN BOULEVARD;1.0;0.0;1.0;1.0;0.5;0.5;500.0;0.31;0.98;1.38;0.6799999999999999;0.47;-73.88723945056148;40.6604378;True;True
365;K857;905 WINTHROP STREET;1.0;1.0;0.0;0.0;1.0;0.0;500.0;0.27;1.11;1.38;0.8;0.48;-73.9289335;40.6588889;True;True
366;K860;9517 KINGS HIGHWAY;1.3333333333333333;0.6666666666666666;1.0;3.0;1.3333333333333333;0.3333333333333333;250.0;0.3433333333333333;0.8333333333333334;1.3699999999999999;0.7133333333333333;0.3666666666666667;-73.92061002773849;40.659789599999996;True;True
367;K864;3109 NEWKIRK AVENUE;1.0;0.0;0.0;0.3333333333333333;0.0;0.0;750.0;0.3066666666666667;1.1833333333333336;1.7733333333333334;0.79;0.5433333333333333;-73.94691474896437;40.640373600000004;True;True
368;K865;797 BUSHWICK AVENUE;1.0;0.3333333333333333;1.3333333333333333;2.3333333333333335;0.3333333333333333;0.6666666666666666;500.0;0.2966666666666667;1.0233333333333332;1.38;0.7200000000000001;0.47333333333333333;-73.92764577297487;40.6954245;True;True
369;K872;1461 GENEVA LOOP;1.0;0.0;0.5;2.5;0.0;0.5;500.0;0.27;1.0050000000000001;1.525;0.7150000000000001;0.45999999999999996;-73.87895506187193;40.64627575;True;True
370;K874;227 STERLING PLACE;1.0;0.0;0.0;1.0;0.0;0.0;250.0;0.3433333333333333;0.8333333333333334;1.3699999999999999;0.7133333333333333;0.3666666666666667;-73.96978589332721;40.6762789;True;True
371;K894;1495 HERKIMER STREET;1.3333333333333333;2.6666666666666665;4.0;9.0;4.333333333333333;1.6666666666666667;250.0;0.3433333333333333;0.8333333333333334;1.3699999999999999;0.7133333333333333;0.3666666666666667;-73.90398804781721;40.67751765;True;True
372;K902;62 PARK PLACE;2.0;0.3333333333333333;0.6666666666666666;1.0;0.0;0.6666666666666666;500.0;0.2966666666666667;1.0233333333333332;1.38;0.7200000000000001;0.47333333333333333;-73.9765909;40.6789125;True;True
373;K907;1150 EAST NEW YORK AVENUE;1.0;0.3333333333333333;3.3333333333333335;6.0;2.3333333333333335;1.3333333333333333;250.0;0.3433333333333333;0.8333333333333334;1.3699999999999999;0.7133333333333333;0.3666666666666667;-73.9238889;40.6661111;True;True
374;K909;561 GRAND AVENUE;1.0;1.6666666666666667;3.0;6.0;2.6666666666666665;1.3333333333333333;666.6666666666666;0.30333333333333334;1.1133333333333335;1.75;0.75;0.5133333333333333;-73.96201007692308;40.67846746153846;True;True
375;K913;1155 DEKALB AVENUE;1.0;0.3333333333333333;2.0;4.0;1.0;1.3333333333333333;750.0;0.3066666666666667;1.1833333333333336;1.7733333333333334;0.79;0.5433333333333333;-73.92930333980486;40.69470855;True;True
376;K914;71-77 CLINTON AVENUE;1.0;0.3333333333333333;3.6666666666666665;5.0;2.0;1.0;1000.0;0.4533333333333333;1.6900000000000002;2.5466666666666664;1.1033333333333333;0.7733333333333333;-73.9691581;40.695423999999996;True;True
377;K917;350 CONEY ISLAND AVENUE;1.0;0.0;0.6666666666666666;0.3333333333333333;0.3333333333333333;0.0;750.0;0.3066666666666667;1.1833333333333336;1.7733333333333334;0.79;0.5433333333333333;-73.97199601932508;40.6491768;True;True
378;K932;560 BROOK AVENUE;1.0;1.0;2.0;0.5;0.0;3.0;500.0;0.27;1.0050000000000001;1.525;0.7150000000000001;0.45999999999999996;-73.965174;40.588856;True;True
379;K932;631 Belmont Ave.;1.0;4.0;1.0;1.0;0.0;5.0;500.0;0.35;1.06;1.09;0.73;0.5;-73.88610271428571;40.672109285714285;True;True
380;K971;6214 4TH AVENUE;1.0;0.0;0.3333333333333333;0.3333333333333333;0.3333333333333333;0.0;500.0;0.2966666666666667;1.0233333333333332;1.38;0.7200000000000001;0.47333333333333333;-74.0203034892963;40.63949425;True;True
381;K987;1396 BROADWAY;1.0;0.3333333333333333;5.0;9.0;3.0;1.3333333333333333;750.0;0.3066666666666667;1.1833333333333336;1.7733333333333334;0.79;0.5433333333333333;-73.9208716;40.6885596;True;True
382;K994;1119 BEDFORD AVENUE;1.0;0.0;1.0;1.0;1.0;0.0;500.0;0.2966666666666667;1.0233333333333332;1.38;0.7200000000000001;0.47333333333333333;-73.95401870628382;40.68552125;True;True
383;KAGI;153 35th St.;1.0;0.0;0.0;0.0;0.0;0.0;1000.0;0.38;1.71;2.38;0.98;0.82;-74.0045642;40.6554547;True;True
384;KAQX;856 QUINCY STREET;1.0;0.0;0.0;0.0;0.0;0.0;750.0;0.28;1.11;1.74;0.75;0.53;-73.92512729101203;40.6897108;True;True
385;KBNU;500 19TH STREET;1.0;0.0;0.0;0.0;0.0;0.0;500.0;0.27;0.9;1.67;0.63;0.44;-73.98256476685823;40.656257;True;True
386;KBXX;475 EAST   57 STREET;1.0;0.0;0.0;0.0;0.0;0.0;500.0;0.27;0.9;1.67;0.63;0.44;-73.92229619999999;40.6437953;True;True
387;KBZT;2186 MILL AVENUE;1.0;0.0;0.0;0.0;0.0;0.0;750.0;0.28;1.11;1.74;0.75;0.53;-73.91429356415853;40.612209199999995;True;True
388;L001;525 CONVENT ROAD;1.0;0.0;0.0;0.0;0.0;0.0;666.6666666666666;0.3133333333333333;1.0966666666666667;1.55;0.7566666666666667;0.5133333333333333;-71.9181283;41.7514877;True;False
389;M001;8 HENRY STREET;1.0;0.3333333333333333;0.6666666666666666;0.0;1.0;0.0;500.0;0.2966666666666667;1.0233333333333332;1.38;0.7200000000000001;0.47333333333333333;-73.991656;40.70050838461538;True;True
390;M002;122 HENRY STREET;1.0;0.0;0.6666666666666666;0.6666666666666666;0.6666666666666666;0.0;916.6666666666666;0.42;1.49;2.3333333333333335;1.0266666666666666;0.6766666666666667;-73.99336775;40.696975916666666;True;True
391;M003;490 HUDSON STREET;1.0;0.0;2.0;0.3333333333333333;1.3333333333333333;0.3333333333333333;1000.0;0.4533333333333333;1.6900000000000002;2.5466666666666664;1.1033333333333333;0.7733333333333333;-81.2110323;34.7057052;True;False
392;M004;500 WEST 160 STREET;1.0;0.0;0.3333333333333333;1.0;0.3333333333333333;0.0;750.0;0.3066666666666667;1.1833333333333336;1.7733333333333334;0.79;0.5433333333333333;-73.97865299932116;40.7017848;True;True
393;M005;3703 TENTH AVENUE;1.0;0.3333333333333333;0.0;0.3333333333333333;0.3333333333333333;0.0;750.0;0.3066666666666667;1.1833333333333336;1.7733333333333334;0.79;0.5433333333333333;-73.9922969;40.6452071;True;True
394;M006;45 EAST  81 STREET;1.0;0.0;0.3333333333333333;0.3333333333333333;0.3333333333333333;0.0;833.3333333333334;0.37000000000000005;1.3133333333333335;2.016666666666667;0.9;0.5966666666666667;-73.9126734;40.636164;True;True
395;M007;160 EAST 120 STREET;2.0;0.6666666666666666;2.0;4.0;1.3333333333333333;1.3333333333333333;750.0;0.3066666666666667;1.1833333333333336;1.7733333333333334;0.79;0.5433333333333333;-73.9393346;40.8007729;True;False
396;M008;465 WEST 167 STREET;1.0;0.0;0.3333333333333333;0.6666666666666666;0.0;0.3333333333333333;750.0;0.3066666666666667;1.1833333333333336;1.7733333333333334;0.79;0.5433333333333333;151.196108;-33.5211875;True;False
397;M009;100 WEST  84 STREET;2.0;0.0;0.3333333333333333;0.3333333333333333;0.3333333333333333;0.0;1000.0;0.4533333333333333;1.6900000000000002;2.5466666666666664;1.1033333333333333;0.7733333333333333;-73.973866;40.7850907;True;False
398;M010;2581 7TH AVENUE;1.0;1.0;7.0;8.333333333333334;4.0;3.3333333333333335;1500.0;0.7966666666666667;3.1666666666666665;5.463333333333334;2.023333333333333;1.49;-74.015424;40.632513;True;True
399;M011;320 WEST  21 STREET;1.0;0.0;0.3333333333333333;0.0;0.3333333333333333;0.0;1000.0;0.4533333333333333;1.6900000000000002;2.5466666666666664;1.1033333333333333;0.7733333333333333;-74.0006788;40.744296;True;False
400;M013;1573 MADISON AVENUE;5.0;0.0;2.0;2.3333333333333335;1.0;0.6666666666666666;1000.0;0.4266666666666667;1.67;2.64;1.0666666666666667;0.7600000000000001;-73.94386846938775;40.61316955102041;True;True
401;M015;333 EAST  4 STREET;1.0;0.6666666666666666;0.6666666666666666;0.6666666666666666;1.0;0.3333333333333333;250.0;0.3433333333333333;0.8333333333333334;1.3699999999999999;0.7133333333333333;0.3666666666666667;-74.00033404976074;40.5805768;True;True
402;M017;328 WEST  48 STREET;2.0;0.3333333333333333;1.3333333333333333;2.6666666666666665;1.6666666666666667;0.0;1000.0;0.4533333333333333;1.6900000000000002;2.5466666666666664;1.1033333333333333;0.7733333333333333;-73.9886092;40.761226;True;False
403;M019;185 1 AVENUE;2.0;0.6666666666666666;3.3333333333333335;2.0;1.6666666666666667;1.6666666666666667;500.0;0.2966666666666667;1.0233333333333332;1.38;0.7200000000000001;0.47333333333333333;-73.9402889;40.5916778;True;True
404;M020;166 ESSEX STREET;1.0;0.6666666666666666;2.0;3.0;1.3333333333333333;1.3333333333333333;750.0;0.3066666666666667;1.1833333333333336;1.7733333333333334;0.79;0.5433333333333333;-73.88289499999999;40.6801067;True;True
405;M022;111 COLUMBIA STREET;1.0;0.0;2.6666666666666665;3.0;2.0;0.6666666666666666;1833.3333333333333;0.8433333333333333;3.473333333333333;6.446666666666666;2.2133333333333334;1.6333333333333335;-74.00100560105973;40.6879797;True;True
406;M025;145 STANTON STREET;3.0;1.3333333333333333;7.666666666666667;11.0;3.6666666666666665;4.0;1250.0;0.5366666666666666;2.236666666666667;3.6300000000000003;1.3466666666666667;1.0333333333333332;-73.9365;40.584832;True;True
407;M028;475 WEST 155 STREET;1.0;1.0;1.0;0.0;2.0;0.0;916.6666666666666;0.42;1.49;2.3333333333333335;1.0266666666666666;0.6766666666666667;-73.96819152014527;40.6835151;True;True
408;M030;144-176 EAST 128 STREET;3.0;0.3333333333333333;1.0;2.0;1.0;0.3333333333333333;1250.0;0.5066666666666667;1.8366666666666667;3.1966666666666668;1.2066666666666668;0.8533333333333334;-73.9354597;40.8056551;True;False
409;M033;281 9 AVENUE;1.0;0.6666666666666666;0.3333333333333333;0.6666666666666666;1.0;0.0;750.0;0.3066666666666667;1.1833333333333336;1.7733333333333334;0.79;0.5433333333333333;-73.9943519;40.6463249;True;True
410;M034;730 EAST  12 STREET;1.0;0.0;1.3333333333333333;1.3333333333333333;0.3333333333333333;1.0;500.0;0.2966666666666667;1.0233333333333332;1.38;0.7200000000000001;0.47333333333333333;-73.9648694;40.6285589;True;True
411;M036;123 MORNINGSIDE DRIVE;1.0;0.0;0.6666666666666666;4.0;0.6666666666666666;0.0;666.6666666666666;0.30333333333333334;1.1133333333333335;1.75;0.75;0.5133333333333333;-81.689946;41.429943;True;False
412;M040;319 EAST 19 STREET;2.0;0.3333333333333333;1.6666666666666667;0.6666666666666666;2.0;0.0;1083.3333333333333;0.5166666666666666;1.8266666666666669;2.966666666666667;1.24;0.85;-73.9996623;40.6379042;True;True
413;M041;116 WEST  11 STREET;1.0;0.3333333333333333;0.0;0.3333333333333333;0.0;0.3333333333333333;916.6666666666666;0.42;1.49;2.3333333333333335;1.0266666666666666;0.6766666666666667;-73.99916576702879;40.57777695;True;True
414;M042;71 HESTER STREET;1.0;0.0;0.3333333333333333;0.0;0.3333333333333333;0.0;916.6666666666666;0.42;1.49;2.3333333333333335;1.0266666666666666;0.6766666666666667;-73.9909457;40.7161122;True;False
415;M043;509 WEST 129 STREET;4.333333333333333;1.3333333333333333;7.666666666666667;17.666666666666668;3.0;3.3333333333333335;1000.0;0.4533333333333333;1.6900000000000002;2.5466666666666664;1.1033333333333333;0.7733333333333333;-73.9556642;40.815709;True;False
416;M044;100 WEST  77 STREET;3.0;0.6666666666666666;2.0;0.6666666666666666;2.0;0.3333333333333333;1416.6666666666667;0.6966666666666668;2.8800000000000003;4.8;1.7533333333333332;1.4100000000000001;-74.0255506;40.6295562;True;True
417;M045;2351 1ST AVENUE;2.0;1.0;3.3333333333333335;4.333333333333333;1.6666666666666667;2.0;750.0;0.39666666666666667;1.43;2.0366666666666666;0.9733333333333333;0.6766666666666667;-74.0214533;40.6481807;True;True
418;M046;2987 FREDERICK DGLS BLVD;1.0;1.3333333333333333;3.3333333333333335;2.0;3.0;1.3333333333333333;1000.0;0.4533333333333333;1.6900000000000002;2.5466666666666664;1.1033333333333333;0.7733333333333333;-73.93607399999999;40.8316474;True;False
419;M047;223 EAST 23 STREET;2.0;0.3333333333333333;1.0;1.3333333333333333;0.6666666666666666;0.3333333333333333;500.0;0.2966666666666667;1.0233333333333332;1.38;0.7200000000000001;0.47333333333333333;-73.9996623;40.6379042;True;True
420;M048;4360-78 BROADWAY;1.0;0.3333333333333333;0.0;0.3333333333333333;0.3333333333333333;0.0;750.0;0.3066666666666667;1.1833333333333336;1.7733333333333334;0.79;0.5433333333333333;-73.9337859;40.8533418;True;False
421;M050;433 EAST 100 STREET;1.6666666666666667;0.6666666666666666;3.0;3.6666666666666665;2.6666666666666665;0.6666666666666666;500.0;0.2966666666666667;1.0233333333333332;1.38;0.7200000000000001;0.47333333333333333;-73.903877;40.6501491;True;True
422;M052;650 ACADEMY STREET;2.6666666666666665;0.6666666666666666;2.6666666666666665;2.3333333333333335;2.0;0.6666666666666666;1000.0;0.4533333333333333;1.6900000000000002;2.5466666666666664;1.1033333333333333;0.7733333333333333;-81.2134346;34.70898;True;False
423;M054;103 WEST 107 STREET;1.0;0.6666666666666666;3.3333333333333335;1.0;2.3333333333333335;1.3333333333333333;1000.0;0.4533333333333333;1.6900000000000002;2.5466666666666664;1.1033333333333333;0.7733333333333333;-64.6971535;44.066887;True;False
424;M056;220 HENRY STREET;4.0;1.3333333333333333;7.666666666666667;5.333333333333333;6.0;3.0;916.6666666666666;0.49666666666666665;1.8133333333333335;2.8333333333333335;1.2133333333333334;0.89;-73.99485916666667;40.69385266666667;True;True
425;M057;176 EAST 115 STREET;1.0;1.0;1.3333333333333333;2.0;1.6666666666666667;0.6666666666666666;1000.0;0.4533333333333333;1.6900000000000002;2.5466666666666664;1.1033333333333333;0.7733333333333333;-73.9412633;40.7972688;True;False
426;M058;317 WEST  52ND STREET;1.0;2.3333333333333335;4.0;18.333333333333332;1.6666666666666667;3.6666666666666665;333.3333333333333;0.35333333333333333;0.8966666666666666;1.3566666666666667;0.7533333333333333;0.4066666666666667;-81.721848;41.439901;True;False
427;M060;420 EAST 12 STREET;1.0;0.3333333333333333;3.3333333333333335;0.6666666666666666;2.0;0.6666666666666666;750.0;0.3066666666666667;1.1833333333333336;1.7733333333333334;0.79;0.5433333333333333;-73.9648694;40.6285589;True;True
428;M061;610 EAST  12 STREET;2.0;0.3333333333333333;0.6666666666666666;0.0;0.6666666666666666;0.3333333333333333;666.6666666666666;0.2933333333333334;1.18;1.6266666666666667;0.7933333333333333;0.5333333333333333;-73.9783818;40.7277257;True;False
429;M063;121 EAST  3 STREET;2.0;0.0;0.3333333333333333;0.6666666666666666;0.3333333333333333;0.0;666.6666666666666;0.3133333333333333;1.0966666666666667;1.55;0.7566666666666667;0.5133333333333333;-90.17005665226802;38.657823643071644;True;False
430;M064;600 EAST  6 STREET;3.0;1.0;1.6666666666666667;0.3333333333333333;2.6666666666666665;0.0;1000.0;0.4533333333333333;1.6900000000000002;2.5466666666666664;1.1033333333333333;0.7733333333333333;-73.9638691;40.58692320000001;True;True
431;M066;421 EAST  88 STREET;1.0;0.0;0.3333333333333333;0.0;0.3333333333333333;0.0;666.6666666666666;0.3133333333333333;1.0966666666666667;1.55;0.7566666666666667;0.5133333333333333;-73.9154001;40.646377;True;True
432;M070;333 WEST  17 STREET;3.0;0.6666666666666666;1.6666666666666667;2.3333333333333335;2.3333333333333335;0.0;1750.0;0.7233333333333333;3.0233333333333334;5.473333333333334;1.7933333333333332;1.5033333333333332;-73.98585109999999;40.5845111;True;True
433;M072;131 EAST 104 STREET;1.0;0.3333333333333333;1.3333333333333333;1.0;0.6666666666666666;1.0;666.6666666666666;0.3133333333333333;1.0966666666666667;1.55;0.7566666666666667;0.5133333333333333;-73.8442743;40.6951942;True;False
434;M075;735 WEST END AVENUE;2.0;0.6666666666666666;1.0;2.3333333333333335;1.0;0.6666666666666666;916.6666666666666;0.42;1.49;2.3333333333333335;1.0266666666666666;0.6766666666666667;-73.953342;40.579267;True;True
435;M076;220 WEST 121 STREET;1.0;0.3333333333333333;0.6666666666666666;2.0;1.0;0.0;666.6666666666666;0.3133333333333333;1.0966666666666667;1.55;0.7566666666666667;0.5133333333333333;-73.9511366;40.8065013;True;False
436;M079;55 EAST 120 STREET;1.0;0.3333333333333333;2.3333333333333335;3.3333333333333335;0.6666666666666666;2.0;416.6666666666667;0.32666666666666666;0.9066666666666667;1.3099999999999998;0.6666666666666666;0.4366666666666667;-73.94237050000001;40.80250880000001;True;False
437;M083;219 EAST 109 STREET;2.0;1.3333333333333333;1.0;0.3333333333333333;1.6666666666666667;0.6666666666666666;1000.0;0.4533333333333333;1.6900000000000002;2.5466666666666664;1.1033333333333333;0.7733333333333333;-73.97385994833718;40.68120015;True;True
438;M084;32 WEST  92 STREET;2.0;0.0;1.0;0.3333333333333333;0.6666666666666666;0.3333333333333333;750.0;0.3066666666666667;1.1833333333333336;1.7733333333333334;0.79;0.5433333333333333;-73.9540269;40.6562148;True;True
439;M087;160 WEST  78 STREET;1.0;0.0;0.3333333333333333;0.6666666666666666;0.0;0.0;1000.0;0.4533333333333333;1.6900000000000002;2.5466666666666664;1.1033333333333333;0.7733333333333333;-73.9779065;40.7818845;True;False
440;M088;215 WEST 114 STREET;2.0;3.3333333333333335;6.333333333333333;13.0;5.666666666666667;3.0;1000.0;0.4533333333333333;1.6900000000000002;2.5466666666666664;1.1033333333333333;0.7733333333333333;-73.95414029999999;40.8025744;True;False
441;M089;201 WARREN STREET;2.0;0.0;0.3333333333333333;0.6666666666666666;0.3333333333333333;0.0;833.3333333333334;0.37000000000000005;1.3133333333333335;2.016666666666667;0.9;0.5966666666666667;-73.99514472;40.687292920000004;True;True
442;M090;21 JUMEL PLACE;3.0;0.3333333333333333;3.3333333333333335;5.0;1.6666666666666667;1.6666666666666667;1166.6666666666667;0.47333333333333333;2.1;3.2099999999999995;1.2100000000000002;0.9566666666666666;-73.9357066;40.839456;True;False
443;M092;222 WEST 134 STREET;1.6666666666666667;0.3333333333333333;2.0;0.6666666666666666;2.0;0.3333333333333333;500.0;0.2966666666666667;1.0233333333333332;1.38;0.7200000000000001;0.47333333333333333;-73.9244302;40.6894457;True;True
444;M093;501-503 WEST 152 STREET;1.0;0.0;0.6666666666666666;0.0;0.6666666666666666;0.0;500.0;0.2966666666666667;1.0233333333333332;1.38;0.7200000000000001;0.47333333333333333;-73.9441579;40.6781784;True;True
445;M096;216 EAST 120 STREET;1.0;1.3333333333333333;1.6666666666666667;2.0;2.3333333333333335;0.6666666666666666;583.3333333333334;0.29000000000000004;1.11;1.6033333333333333;0.7533333333333333;0.5033333333333333;-73.96968895555636;40.5902115;True;True
446;M097;525 EAST HOUSTON STREET;1.0;0.0;0.0;1.0;0.0;0.0;750.0;0.3066666666666667;1.1833333333333336;1.7733333333333334;0.79;0.5433333333333333;-81.66423993548723;30.32858020982891;True;False
447;M098;512 WEST 212 STREET;1.0;0.6666666666666666;0.6666666666666666;0.6666666666666666;1.0;0.3333333333333333;750.0;0.3066666666666667;1.1833333333333336;1.7733333333333334;0.79;0.5433333333333333;-73.9176573;40.8678429;True;False
448;M099;410 EAST 100 STREET;3.3333333333333335;1.0;2.6666666666666665;3.6666666666666665;2.3333333333333335;1.3333333333333333;666.6666666666666;0.47666666666666674;1.6033333333333335;2.723333333333333;1.1166666666666665;0.7733333333333334;-73.9038637;40.6501372;True;True
449;M101;141 EAST 111 STREET;1.0;0.0;3.3333333333333335;2.3333333333333335;2.6666666666666665;0.6666666666666666;500.0;0.2966666666666667;1.0233333333333332;1.38;0.7200000000000001;0.47333333333333333;-73.836449;40.6974093;True;False
450;M102;315 EAST 113 STREET;1.0;0.6666666666666666;0.6666666666666666;0.6666666666666666;1.0;0.3333333333333333;500.0;0.2966666666666667;1.0233333333333332;1.38;0.7200000000000001;0.47333333333333333;-73.9383242;40.79492219999999;True;False
